{"clinics":[{"id":"1130","name":"1066 Veterinary Centre","address":"201 Battle Road, St Leonards-on-Sea, TN37 7AJ","longitude":"0.552578","latitude":"50.874172","websiteUrl":"http://www.1066vet.co.uk","phone":"01424 839010","vacanciesText":"","vacanciesUrl":"","distance":"","animalTypes":[],"isGA":false,"logoUrl":"https://api.clinicsview.ivcevidensia.io/webcontent/clinics/Logo/1044"},{"id":"1132","name":"Abbey Vet Centre, Chester Le Street","address":"Pelton Fell Road, Chester Le Street, DH2 2NG","longitude":"-1.596199","latitude":"54.860207","websiteUrl":"http://www.abbeyvetsdurham.co.uk/","phone":"0191 387 1881","vacanciesText":"","vacanciesUrl":"","distance":"","animalTypes":[],"isGA":false,"logoUrl":"https://api.clinicsview.ivcevidensia.io/webcontent/clinics/Logo/1195"},{"id":"1134","name":"Abbey Veterinary Clinic, Forfar","address":"225 East High Street, Angus, DD8 2HL","longitude":"-2.880342","latitude":"56.64647","websiteUrl":"http://www.abbeyvetclinics.co.uk","phone":"01307 462358","vacanciesText":"","vacanciesUrl":"","distance":"","animalTypes":[],"isGA":false,"logoUrl":"https://api.clinicsview.ivcevidensia.io/webcontent/clinics/Logo/1587"},{"id":"1138","name":"Abbeymoor Veterinary Centre, Halifax Road","address":"110-116 Halifax Road, Sheffield, S6 1LH","longitude":"-1.49228","latitude":"53.42106","websiteUrl":"http://www.abbeymoorvets.com","phone":"0114 233 4673","vacanciesText":"","vacanciesUrl":"","distance":"","animalTypes":[],"isGA":false,"logoUrl":"https://api.clinicsview.ivcevidensia.io/webcontent/clinics/Logo/1330"},{"id":"1139","name":"Aberdeen Veterinary Referrals","address":"Aberdeen Veterinary Referrals Ltd, Skene Road, AB15 8PJ","longitude":"-2.229391","latitude":"57.1483","websiteUrl":"http://www.aberdeenveterinaryreferrals.com","phone":"01224 002221","vacanciesText":"","vacanciesUrl":"","distance":"","animalTypes":[],"isGA":false,"logoUrl":"https://api.clinicsview.ivcevidensia.io/webcontent/clinics/Logo/1434"},{"id":"1144","name":"Abington Park Vets, Moulton","address":"The Holcot Centre, Pitsford Road, Moulton, NN3 7SS","longitude":"-0.857756","latitude":"52.289955","websiteUrl":"http://www.abingtonvets.co.uk","phone":"01604 628685","vacanciesText":"","vacanciesUrl":"","distance":"","animalTypes":[],"isGA":false,"logoUrl":"https://api.clinicsview.ivcevidensia.io/webcontent/clinics/Logo/1053"},{"id":"1145","name":"Abivale Veterinary Group, Abingdon","address":"The Vineyard, Abingdon, OX14 3NR","longitude":"-1.281747","latitude":"51.6728","websiteUrl":"http://www.abivale.com","phone":"01235 524777","vacanciesText":"","vacanciesUrl":"","distance":"","animalTypes":[],"isGA":false,"logoUrl":"https://api.clinicsview.ivcevidensia.io/webcontent/clinics/Logo/1447"},{"id":"1150","name":"Acorn Veterinary Surgery, Hove","address":"49 Portland Road, Hove, BN3Â 5DQ","longitude":"-0.198583","latitude":"50.852467","websiteUrl":"http://www.acorn-vets.co.uk","phone":"01273 720755","vacanciesText":"","vacanciesUrl":"","distance":"","animalTypes":[],"isGA":false,"logoUrl":"https://api.clinicsview.ivcevidensia.io/webcontent/clinics/Logo/1276"},{"id":"1151","name":"Acres Veterinary Centre, Airdrie","address":"Acres Veterinary Centre, 9-11 Upper Mill Street, ML6 6JJ","longitude":"-3.977075","latitude":"55.86799","websiteUrl":"http://www.acresvetcentre.co.uk","phone":"01236 763541","vacanciesText":"","vacanciesUrl":"","distance":"","animalTypes":[],"isGA":false,"logoUrl":"https://api.clinicsview.ivcevidensia.io/webcontent/clinics/Logo/1397"},{"id":"1152","name":"Adams Vets, Fazakerley","address":"The Lodge, Aintree Hospital Gate, L9 7LQ","longitude":"-2.93709","latitude":"53.46872","websiteUrl":"http://www.adamsvets.co.uk","phone":"0151 525 0847","vacanciesText":"","vacanciesUrl":"","distance":"","animalTypes":[],"isGA":false,"logoUrl":"https://api.clinicsview.ivcevidensia.io/webcontent/clinics/Logo/2011"},{"id":"1153","name":"Adams Vets, Wavertree","address":"19 Church Road, Wavertree, L15 9EA","longitude":"-2.91485","latitude":"53.39175","websiteUrl":"http://www.adamsvets.co.uk","phone":"0151 733 5755","vacanciesText":"","vacanciesUrl":"","distance":"","animalTypes":[],"isGA":false,"logoUrl":"https://api.clinicsview.ivcevidensia.io/webcontent/clinics/Logo/2010"},{"id":"1154","name":"Adelaide Veterinary Centre, Sandy","address":"40-42 High Street, Sandy, SG19 1AJ","longitude":"-0.283363","latitude":"52.126347","websiteUrl":"http://www.adelaidevetcentre.co.uk","phone":"01767 699889","vacanciesText":"","vacanciesUrl":"","distance":"","animalTypes":[],"isGA":false,"logoUrl":"https://api.clinicsview.ivcevidensia.io/webcontent/clinics/Logo/1114"},{"id":"1155","name":"Albert Cottage Veterinary Clinic, Saltash","address":"66 Liskeard Road, Saltash, PL12 4HG","longitude":"-4.237177","latitude":"50.413628","websiteUrl":"http://www.albertcottagevets.com","phone":"01752 843397","vacanciesText":"","vacanciesUrl":"","distance":"","animalTypes":[],"isGA":false,"logoUrl":"https://api.clinicsview.ivcevidensia.io/webcontent/clinics/Logo/1295"},{"id":"1156","name":"Alcombe Veterinary Surgery, Ealing","address":"160 Northfield Ave, Ealing, W13 9SB","longitude":"-0.31809","latitude":"51.50395","websiteUrl":"http://www.alcombe.com/","phone":"020 8567 4597","vacanciesText":"","vacanciesUrl":"","distance":"","animalTypes":[],"isGA":false,"logoUrl":"https://api.clinicsview.ivcevidensia.io/webcontent/clinics/Logo/1778"},{"id":"1160","name":"Alder Veterinary Practice, Spalding","address":"58 Bourne Road, Spalding, PE11 1JW","longitude":"-0.169852","latitude":"52.784054","websiteUrl":"http://www.alder-vets.co.uk","phone":"01775 766646","vacanciesText":"","vacanciesUrl":"","distance":"","animalTypes":[],"isGA":false,"logoUrl":"https://api.clinicsview.ivcevidensia.io/webcontent/clinics/Logo/1503"},{"id":"1161","name":"Alexander Vets, Barrow","address":"47-49 Hartington Street, Barrow in Furness, LA14 5SL","longitude":"-3.22922","latitude":"54.11672","websiteUrl":"http://www.alexandervets.co.uk","phone":"01229 836516","vacanciesText":"","vacanciesUrl":"","distance":"","animalTypes":[],"isGA":false,"logoUrl":"https://api.clinicsview.ivcevidensia.io/webcontent/clinics/Logo/1191"},{"id":"1164","name":"Alma Veterinary Hospital, Windsor","address":"75 Alma Road, Windsor, SL4 3HE","longitude":"-0.648235","latitude":"51.46068","websiteUrl":"http://www.almavetswindsor.co.uk","phone":"01753 858893","vacanciesText":"","vacanciesUrl":"","distance":"","animalTypes":[],"isGA":false,"logoUrl":"https://api.clinicsview.ivcevidensia.io/webcontent/clinics/Logo/1411"},{"id":"1205","name":"Alora Vets, Whitburn","address":"Burnhouse Industrial Estate, Whitburn, EH47 0LQ","longitude":"-3.701512","latitude":"55.85994","websiteUrl":"http://www.aloravets.org.uk","phone":"01501 744736","vacanciesText":"","vacanciesUrl":"","distance":"","animalTypes":[],"isGA":false,"logoUrl":"https://api.clinicsview.ivcevidensia.io/webcontent/clinics/Logo/9917"},{"id":"1165","name":"Alpha Veterinary Practice, Burry Port","address":"40 Station Rd, Burry Port, SA16 0LP","longitude":"-4.247852","latitude":"51.684334","websiteUrl":"http://www.alphavetpractice.co.uk","phone":"01554 830003","vacanciesText":"","vacanciesUrl":"","distance":"","animalTypes":[],"isGA":false,"logoUrl":"https://api.clinicsview.ivcevidensia.io/webcontent/clinics/Logo/1520"},{"id":"1168","name":"AlphaPet Veterinary Clinics, West Meads","address":"11-17 The Precinct, West Meads, PO21 5SB","longitude":"-0.7026","latitude":"50.78797","websiteUrl":"http://www.alphapet.co.uk","phone":"01243 842832","vacanciesText":"","vacanciesUrl":"","distance":"","animalTypes":[],"isGA":false,"logoUrl":"https://api.clinicsview.ivcevidensia.io/webcontent/clinics/Logo/2021"},{"id":"1169","name":"Alphavet Veterinary Centre, Langstone","address":"Langstone Business Village, Langstone Park, NP18 2LH","longitude":"-2.919188","latitude":"51.604443","websiteUrl":"http://www.alphavets.co.uk","phone":"01633 411446","vacanciesText":"","vacanciesUrl":"","distance":"","animalTypes":[],"isGA":false,"logoUrl":"https://api.clinicsview.ivcevidensia.io/webcontent/clinics/Logo/1472"},{"id":"1173","name":"Amery Veterinary Group, Bordon","address":"Chalet Hill, Bordon, GU35 0DD","longitude":"-0.85853","latitude":"51.11156","websiteUrl":"http://www.amery-vets.co.uk","phone":"01420 472904","vacanciesText":"","vacanciesUrl":"","distance":"","animalTypes":[],"isGA":false,"logoUrl":"https://api.clinicsview.ivcevidensia.io/webcontent/clinics/Logo/1723"},{"id":"1175","name":"Andale Veterinary Centre, Widnes","address":"Ditchfield Road, Widnes, WA8 8RF","longitude":"-2.772033","latitude":"53.36426","websiteUrl":"http://www.andalevets.co.uk","phone":"0151 423 1388","vacanciesText":"","vacanciesUrl":"","distance":"","animalTypes":[],"isGA":false,"logoUrl":"https://api.clinicsview.ivcevidensia.io/webcontent/clinics/Logo/1188"},{"id":"1182","name":"Animals 1st Veterinary Surgery, Macmerry","address":"Unit 19 MacMerry Industrial Estate, Macmerry, EH33 1RD","longitude":"-2.891364","latitude":"55.945507","websiteUrl":"http://www.animals1st.co.uk","phone":"01875 824 400","vacanciesText":"","vacanciesUrl":"","distance":"","animalTypes":[],"isGA":false,"logoUrl":"https://api.clinicsview.ivcevidensia.io/webcontent/clinics/Logo/1830"},{"id":"1185","name":"Aniwell Veterinary Clinic, Kinson","address":"1506 Wimborne Road, Kinson, BH11 9AD","longitude":"-1.903025","latitude":"50.7689","websiteUrl":"http://www.aniwell.co.uk","phone":"01202 591208","vacanciesText":"","vacanciesUrl":"","distance":"","animalTypes":[],"isGA":false,"logoUrl":"https://api.clinicsview.ivcevidensia.io/webcontent/clinics/Logo/1354"},{"id":"1186","name":"Aran Vet Clinic, Llangefni","address":"Unit 3 The Cefni Centre, Bryn Cefni Business Park, LL77 7XA","longitude":"-4.30246","latitude":"53.24928","websiteUrl":"http://www.aranvetclinic.co.uk","phone":"01248 750255","vacanciesText":"","vacanciesUrl":"","distance":"","animalTypes":[],"isGA":false,"logoUrl":"https://api.clinicsview.ivcevidensia.io/webcontent/clinics/Logo/1398"},{"id":"1188","name":"Ardene House Veterinary Practice, Kingswells Hospital","address":"Skene Road, Aberdeen, AB15 8PJ","longitude":"-2.229391","latitude":"57.1483","websiteUrl":"http://www.ardenehouse.co.uk","phone":"01224 740700","vacanciesText":"","vacanciesUrl":"","distance":"","animalTypes":[],"isGA":false,"logoUrl":"https://api.clinicsview.ivcevidensia.io/webcontent/clinics/Logo/1339"},{"id":"1190","name":"Arg Beiyn Veterinary Practice, Ramsey","address":"81 Parliament Street, Ramsey, IM8 1AQ","longitude":"-4.408653","latitude":"54.3297","websiteUrl":"http://www.iomvet.co.uk","phone":"01624 812208","vacanciesText":"","vacanciesUrl":"","distance":"","animalTypes":[],"isGA":false,"logoUrl":"https://api.clinicsview.ivcevidensia.io/webcontent/clinics/Logo/1298"},{"id":"2050","name":"Ark House Vets, Leighton Buzzard","address":"22 Hockliffe Street, Leighton Buzzard, LU7 1HJ","longitude":"-0.65843","latitude":"51.91736","websiteUrl":"http://www.arkhousevets.co.uk","phone":"01525 373329","vacanciesText":"","vacanciesUrl":"","distance":"","animalTypes":[],"isGA":false,"logoUrl":"https://api.clinicsview.ivcevidensia.io/webcontent/clinics/Logo/2131"},{"id":"1191","name":"Ark Veterinary Centre, Colchester","address":"14 Church Lane, Lexden, CO3 4AF","longitude":"0.859671","latitude":"51.882893","websiteUrl":"http://www.ark-vets.co.uk","phone":"01206 572410","vacanciesText":"","vacanciesUrl":"","distance":"","animalTypes":[],"isGA":false,"logoUrl":"https://api.clinicsview.ivcevidensia.io/webcontent/clinics/Logo/1714"},{"id":"2192","name":"Ark Veterinary Surgery, Dronfield","address":"1 Holborn Avenue, Dronfield, S18 2NA","longitude":"-1.47033","latitude":"53.30269","websiteUrl":"http://www.arkvetsheffield.co.uk","phone":"01246 415270","vacanciesText":"","vacanciesUrl":"","distance":"","animalTypes":[],"isGA":false,"logoUrl":"https://api.clinicsview.ivcevidensia.io/webcontent/clinics/Logo/9348"},{"id":"2193","name":"Ark Veterinary Surgery, Killamarsh","address":"187 Sheffield Road, Killamarsh, S21 1DY","longitude":"-1.31482","latitude":"53.32585","websiteUrl":"http://www.arkvetsheffield.co.uk","phone":"0114 247 0828","vacanciesText":"","vacanciesUrl":"","distance":"","animalTypes":[],"isGA":false,"logoUrl":"https://api.clinicsview.ivcevidensia.io/webcontent/clinics/Logo/9349"},{"id":"1192","name":"Ashcroft Veterinary Surgery","address":"59 Main Street, Frodsham, WA6 7DF","longitude":"-2.728923","latitude":"53.294895","websiteUrl":"http://www.ashcroftvets.co.uk","phone":"01928 733228","vacanciesText":"","vacanciesUrl":"","distance":"","animalTypes":[],"isGA":false,"logoUrl":"https://api.clinicsview.ivcevidensia.io/webcontent/clinics/Logo/1068"},{"id":"1193","name":"Ashleigh Veterinary Centre, Chorlton","address":"221 Upper Chorlton Road, Chorlton, M16 0DE","longitude":"-2.2659","latitude":"53.45417","websiteUrl":"http://www.ashleigh-veterinary-centre.com","phone":"016188 16868","vacanciesText":"","vacanciesUrl":"","distance":"","animalTypes":[],"isGA":false,"logoUrl":"https://api.clinicsview.ivcevidensia.io/webcontent/clinics/Logo/1986"},{"id":"1195","name":"Atherton Veterinary Centre, Manchester","address":"124 Bolton Road, Manchester, M46 9JZ","longitude":"-2.482653","latitude":"53.527824","websiteUrl":"http://www.athertonvetcentre.co.uk","phone":"01942 876873","vacanciesText":"","vacanciesUrl":"","distance":"","animalTypes":[],"isGA":false,"logoUrl":"https://api.clinicsview.ivcevidensia.io/webcontent/clinics/Logo/1201"},{"id":"1197","name":"Avenue Veterinary Centre, Grantham","address":"35 Avenue Road, Grantham, NG31 6TJ","longitude":"-0.639287","latitude":"52.91109","websiteUrl":"http://www.avcvets.co.uk","phone":"01476 563 371","vacanciesText":"","vacanciesUrl":"","distance":"","animalTypes":[],"isGA":false,"logoUrl":"https://api.clinicsview.ivcevidensia.io/webcontent/clinics/Logo/9895"},{"id":"1200","name":"Avon Lodge Veterinary Centre, Wells Road","address":"283 Wells Road, Knowle, BS4 2PP","longitude":"-2.569401","latitude":"51.43653","websiteUrl":"http://www.avonlodgevets.com","phone":"0117 977 3230","vacanciesText":"","vacanciesUrl":"","distance":"","animalTypes":[],"isGA":false,"logoUrl":"https://api.clinicsview.ivcevidensia.io/webcontent/clinics/Logo/1580"},{"id":"1202","name":"Avon Lodge Veterinary Group, Salisbury","address":"21 Stratford Road, Salisbury Wiltshire, SP1 3JN","longitude":"-1.801697","latitude":"51.08259","websiteUrl":"http://www.avonlodgevets.co.uk","phone":"01722 412211","vacanciesText":"","vacanciesUrl":"","distance":"","animalTypes":[],"isGA":false,"logoUrl":"https://api.clinicsview.ivcevidensia.io/webcontent/clinics/Logo/1414"},{"id":"1204","name":"Avondale Veterinary Group, Strathaven - Small animal","address":"Avondale House, Strathaven Rural Centre, ML10 6SY","longitude":"-4.055666","latitude":"55.69155","websiteUrl":"http://www.avondalevets.com","phone":"01357 520251","vacanciesText":"","vacanciesUrl":"","distance":"","animalTypes":[],"isGA":false,"logoUrl":"https://api.clinicsview.ivcevidensia.io/webcontent/clinics/Logo/1429"},{"id":"2179","name":"Axe Valley Veterinary Practice, Blackford","address":"Redmans Hill, Blackford, BS28 4NG","longitude":"-2.84248","latitude":"51.22506","websiteUrl":"http://www.vetssomerset.co.uk","phone":"01934 712229","vacanciesText":"","vacanciesUrl":"","distance":"","animalTypes":[],"isGA":false,"logoUrl":"https://api.clinicsview.ivcevidensia.io/webcontent/clinics/Logo/9332"},{"id":"1163","name":"Axe Valley Vets, Winscombe","address":"Hillyfields Way, Winscombe, BS25 1AE","longitude":"-2.83107","latitude":"51.31486","websiteUrl":"http://www.axevalleyvets.co.uk/","phone":"01934 843381","vacanciesText":"","vacanciesUrl":"","distance":"","animalTypes":[],"isGA":false,"logoUrl":"https://api.clinicsview.ivcevidensia.io/webcontent/clinics/Logo/1768"},{"id":"1212","name":"Barton Lodge Veterinary Centre, Hemel Hempstead","address":"1 Midland Road, Hemel Hempstead, HP2 5BH","longitude":"-0.468681","latitude":"51.75575","websiteUrl":"http://www.bartonlodgevets.co.uk","phone":"01442 216048","vacanciesText":"","vacanciesUrl":"","distance":"","animalTypes":[],"isGA":false,"logoUrl":"https://api.clinicsview.ivcevidensia.io/webcontent/clinics/Logo/1272"},{"id":"2140","name":"Bath Veterinary Group, Rosemary Lodge Veterinary Hospital","address":"Wellsway, Wellsway, BA2 5RL","longitude":"-2.372891","latitude":"51.359516","websiteUrl":"http://www.bathvetgroup.co.uk","phone":"01225 832521","vacanciesText":"","vacanciesUrl":"","distance":"","animalTypes":[],"isGA":false,"logoUrl":"https://api.clinicsview.ivcevidensia.io/webcontent/clinics/Logo/9706"},{"id":"1224","name":"Beaumont Veterinary Centre","address":"31 Main Road, Pinhoe, EX4 9EY","longitude":"-3.469295","latitude":"50.7411","websiteUrl":"http://www.beaumont-vets.co.uk","phone":"01392 460300","vacanciesText":"","vacanciesUrl":"","distance":"","animalTypes":[],"isGA":false,"logoUrl":"https://api.clinicsview.ivcevidensia.io/webcontent/clinics/Logo/1652"},{"id":"1226","name":"Beech House Veterinary Centre, Bitterne","address":"64 West End Road, Bitterne, SO18 6TG","longitude":"-1.360753","latitude":"50.91514","websiteUrl":"http://www.beechhouse.co.uk","phone":"023 8044 7797","vacanciesText":"","vacanciesUrl":"","distance":"","animalTypes":[],"isGA":false,"logoUrl":"https://api.clinicsview.ivcevidensia.io/webcontent/clinics/Logo/1437"},{"id":"1228","name":"Bell, Brown & Bentley Veterinary Surgeons, Leicester Forest East","address":"41 Hinckley Road, Leicester Forest East, LE3 3GL","longitude":"-1.205137","latitude":"52.62644","websiteUrl":"http://www.bbbvet.org.uk","phone":"0116 238 8100","vacanciesText":"","vacanciesUrl":"","distance":"","animalTypes":[],"isGA":false,"logoUrl":"https://api.clinicsview.ivcevidensia.io/webcontent/clinics/Logo/1517"},{"id":"1232","name":"Belmont Vets, Hereford","address":"94 Belmont Road, Hereford, HR2 7JS","longitude":"-2.72696","latitude":"52.04542","websiteUrl":"http://www.belmontvets.co.uk","phone":"01432 370155","vacanciesText":"","vacanciesUrl":"","distance":"","animalTypes":[],"isGA":false,"logoUrl":"https://api.clinicsview.ivcevidensia.io/webcontent/clinics/Logo/1827"},{"id":"1233","name":"Berry House Vets, Hitchin","address":"41 Nightingale Road, Hitchin, SG5 1RE","longitude":"-0.270704","latitude":"51.95391","websiteUrl":"http://www.berryhousevets.co.uk","phone":"01462 451500","vacanciesText":"","vacanciesUrl":"","distance":"","animalTypes":[],"isGA":false,"logoUrl":"https://api.clinicsview.ivcevidensia.io/webcontent/clinics/Logo/1040"},{"id":"1235","name":"Bilton Veterinary Centre, Rugby","address":"259 Bilton Road, Rugby, CV22 7EQ","longitude":"-1.28635","latitude":"52.363285","websiteUrl":"http://www.biltonvets.co.uk","phone":"01788 812650","vacanciesText":"","vacanciesUrl":"","distance":"","animalTypes":[],"isGA":false,"logoUrl":"https://api.clinicsview.ivcevidensia.io/webcontent/clinics/Logo/1640"},{"id":"1237","name":"Birch Veterinary Centre, Oxton","address":"21 Birch Road, Oxton, CH43 5UF","longitude":"-3.041428","latitude":"53.377235","websiteUrl":"http://www.birchvets.co.uk","phone":"0151 652 3284","vacanciesText":"","vacanciesUrl":"","distance":"","animalTypes":[],"isGA":false,"logoUrl":"https://api.clinicsview.ivcevidensia.io/webcontent/clinics/Logo/1848"},{"id":"1240","name":"Bishop Hendry & Edwards","address":"11 High Street, Newport, TF10 7AR","longitude":"-2.377979","latitude":"52.76731","websiteUrl":"http://www.newportvets.co.uk","phone":"01952 820165","vacanciesText":"","vacanciesUrl":"","distance":"","animalTypes":[],"isGA":false,"logoUrl":"https://api.clinicsview.ivcevidensia.io/webcontent/clinics/Logo/1180"},{"id":"1241","name":"Bishopbriggs Veterinary Centre","address":"2 Duncryne Place, Bishopbriggs, G64 2DP","longitude":"-4.234278","latitude":"55.902557","websiteUrl":"http://www.bishopbriggsvetcentre.com","phone":"01417 721019","vacanciesText":"","vacanciesUrl":"","distance":"","animalTypes":[],"isGA":false,"logoUrl":"https://api.clinicsview.ivcevidensia.io/webcontent/clinics/Logo/1583"},{"id":"1242","name":"Bishops Veterinary Surgery","address":"5 Parkhouse Court, Business Park, AL10 9RQ","longitude":"-0.241235","latitude":"51.7636","websiteUrl":"http://www.bishopsvet.co.uk","phone":"01707 272772","vacanciesText":"","vacanciesUrl":"","distance":"","animalTypes":[],"isGA":false,"logoUrl":"https://api.clinicsview.ivcevidensia.io/webcontent/clinics/Logo/1174"},{"id":"1243","name":"Blackberry Veterinary Clinic","address":"Blackberry Road, Lingfield, RH7 6NQ","longitude":"-0.015155","latitude":"51.158627","websiteUrl":"http://www.blackberryvets.co.uk","phone":"01342 870972","vacanciesText":"","vacanciesUrl":"","distance":"","animalTypes":[],"isGA":false,"logoUrl":"https://api.clinicsview.ivcevidensia.io/webcontent/clinics/Logo/1709"},{"id":"1245","name":"Blackness Veterinary Surgery, Dundee","address":"Unit 3, Dundee, DD1 5AQ","longitude":"-2.985707","latitude":"56.460747","websiteUrl":"http://www.blackness-vet.co.uk","phone":"01382 225422","vacanciesText":"","vacanciesUrl":"","distance":"","animalTypes":[],"isGA":false,"logoUrl":"https://api.clinicsview.ivcevidensia.io/webcontent/clinics/Logo/1005"},{"id":"1246","name":"Blake Vets, Bridgwater","address":"The Veterinary Surgery, Showground Road, TA6 6AJ","longitude":"-2.98886","latitude":"51.11085","websiteUrl":"http://www.blakevets.co.uk","phone":"01278 451592","vacanciesText":"","vacanciesUrl":"","distance":"","animalTypes":[],"isGA":false,"logoUrl":"https://api.clinicsview.ivcevidensia.io/webcontent/clinics/Logo/1884"},{"id":"1248","name":"Blenheim Veterinary Centre, Ashbourne","address":"Blenheim Road, Airfield Industrial Estate, DE6 1HA","longitude":"-1.712789","latitude":"53.005863","websiteUrl":"http://www.blenheimvets.co.uk","phone":"01335 342111","vacanciesText":"","vacanciesUrl":"","distance":"","animalTypes":[],"isGA":false,"logoUrl":"https://api.clinicsview.ivcevidensia.io/webcontent/clinics/Logo/1356"},{"id":"2259","name":"Blue House Veterinary Centre, Biddulph","address":"Princess Street, Staffordshire, ST8 6JN","longitude":"-2.17125","latitude":"53.11348","websiteUrl":"http://bluehousevets.com/","phone":"01782 522100","vacanciesText":"","vacanciesUrl":"","distance":"","animalTypes":[],"isGA":false,"logoUrl":"https://api.clinicsview.ivcevidensia.io/webcontent/clinics/Logo/9392"},{"id":"1250","name":"Boness Veterinary Hospital, Barton-Le-Clay","address":"125 Bedford Road, Barton-Le-Clay, MK45 4LP","longitude":"-0.427592","latitude":"51.97064","websiteUrl":"http://www.bonessvets.co.uk","phone":"01582 612604","vacanciesText":"","vacanciesUrl":"","distance":"","animalTypes":[],"isGA":false,"logoUrl":"https://api.clinicsview.ivcevidensia.io/webcontent/clinics/Logo/1462"},{"id":"1253","name":"Bourne Veterinary Practice, Bekesbourne","address":"Chalkpit Farm, Adisham Road, CT4 5EU","longitude":"1.148349","latitude":"51.254646","websiteUrl":"http://www.bournevets.co.uk","phone":"01227 832322","vacanciesText":"","vacanciesUrl":"","distance":"","animalTypes":[],"isGA":false,"logoUrl":"https://api.clinicsview.ivcevidensia.io/webcontent/clinics/Logo/1637"},{"id":"1254","name":"Boyce & Houston Vets, Clydebank","address":"13 Rockbank Place, Clydebank, G81 5NZ","longitude":"-4.405184","latitude":"55.91001","websiteUrl":"http://www.boyceandhoustonvets.co.uk","phone":"0141 952 4477","vacanciesText":"","vacanciesUrl":"","distance":"","animalTypes":[],"isGA":false,"logoUrl":"https://api.clinicsview.ivcevidensia.io/webcontent/clinics/Logo/1198"},{"id":"1256","name":"Bray House Veterinary Services, Melton Mowbray","address":"36 Asfordby Road, Melton Mowbray, LE13 0HR","longitude":"-0.89861","latitude":"52.76695","websiteUrl":"http://www.brayhousevets.co.uk","phone":"01664 562054","vacanciesText":"","vacanciesUrl":"","distance":"","animalTypes":[],"isGA":false,"logoUrl":"https://api.clinicsview.ivcevidensia.io/webcontent/clinics/Logo/1828"},{"id":"1257","name":"Bridge Street Veterinary Practice, Driffield","address":"Bridge Street Vets, 21 Bridge Street, YO25 6DB","longitude":"-0.44014","latitude":"54.00801","websiteUrl":"http://www.bridgestreetvets.co.uk","phone":"01377 257047","vacanciesText":"","vacanciesUrl":"","distance":"","animalTypes":[],"isGA":false,"logoUrl":"https://api.clinicsview.ivcevidensia.io/webcontent/clinics/Logo/2030"},{"id":"1258","name":"Bridge Veterinary Group, Blackwood","address":"Commercial Street, Pontllanfraith, NP12 2JG","longitude":"-3.18751","latitude":"51.65556","websiteUrl":"http://www.bridgevetcentre.co.uk","phone":"01495 226 272","vacanciesText":"","vacanciesUrl":"","distance":"","animalTypes":[],"isGA":false,"logoUrl":"https://api.clinicsview.ivcevidensia.io/webcontent/clinics/Logo/1240"},{"id":"1260","name":"Bridge Vets, Bridge of Don","address":"55 Ellon Road, Bridge of Don, AB23 8ET","longitude":"-2.090907","latitude":"57.17922","websiteUrl":"http://www.bridgevetsaberdeen.org","phone":"01224 823 227","vacanciesText":"","vacanciesUrl":"","distance":"","animalTypes":[],"isGA":false,"logoUrl":"https://api.clinicsview.ivcevidensia.io/webcontent/clinics/Logo/1435"},{"id":"1141","name":"Bridge Vets, Nigg Kirk","address":"Nigg Kirk Hall, Nigg Kirk Road, AB12 3DB","longitude":"-2.09121","latitude":"57.11977","websiteUrl":"http://www.bridgevetsaberdeen.org","phone":"01224 872024","vacanciesText":"","vacanciesUrl":"","distance":"","animalTypes":[],"isGA":false,"logoUrl":"https://api.clinicsview.ivcevidensia.io/webcontent/clinics/Logo/1765"},{"id":"1262","name":"Brownlow Veterinary Centre, Ellesmere","address":"Ellemere Business Park, Ellesmere, SY12 0EW","longitude":"-2.865185","latitude":"52.904026","websiteUrl":"http://www.brownlowvetgroup.co.uk","phone":"01691 622137","vacanciesText":"","vacanciesUrl":"","distance":"","animalTypes":[],"isGA":false,"logoUrl":"https://api.clinicsview.ivcevidensia.io/webcontent/clinics/Logo/1341"},{"id":"1263","name":"Bruceview Vets, Stirling","address":"150 Glasgow Road, Whins of Milton, FK7 0LJ","longitude":"-3.934128","latitude":"56.092663","websiteUrl":"http://www.bruceviewvets.co.uk","phone":"01786 815560","vacanciesText":"","vacanciesUrl":"","distance":"","animalTypes":[],"isGA":false,"logoUrl":"https://api.clinicsview.ivcevidensia.io/webcontent/clinics/Logo/1182"},{"id":"1270","name":"Burch Tree Vets, Carnforth","address":"39 Lancaster Road, Carnforth, LA5 9LD","longitude":"-2.76889","latitude":"54.127975","websiteUrl":"http://www.btvets.com","phone":"01524 720002","vacanciesText":"","vacanciesUrl":"","distance":"","animalTypes":[],"isGA":false,"logoUrl":"https://api.clinicsview.ivcevidensia.io/webcontent/clinics/Logo/1202"},{"id":"1273","name":"Burton Vets, Lockwood Animal Hospital","address":"25 Ashby Road, Burton on Trent, DE15 0LG","longitude":"-1.610212","latitude":"52.80403","websiteUrl":"http://www.veterinary.org.uk","phone":"01283 510363","vacanciesText":"","vacanciesUrl":"","distance":"","animalTypes":[],"isGA":false,"logoUrl":"https://api.clinicsview.ivcevidensia.io/webcontent/clinics/Logo/1559"},{"id":"1274","name":"Cambridge Veterinary Group, Cherry Hinton","address":"89a Cherry Hinton Road, Cambridge, CB1 7BS","longitude":"0.15373","latitude":"52.18664","websiteUrl":"http://www.cambridgevetgroup.co.uk","phone":"01223 249331","vacanciesText":"","vacanciesUrl":"","distance":"","animalTypes":[],"isGA":false,"logoUrl":"https://api.clinicsview.ivcevidensia.io/webcontent/clinics/Logo/1852"},{"id":"1277","name":"Castle Veterinary Group, Castlewellan","address":"8 Dublin Road, Castlewellan, BT31 9AQ","longitude":"-5.962612","latitude":"54.253777","websiteUrl":"http://www.castlevetgroup.co.uk","phone":"028 4377 8302","vacanciesText":"","vacanciesUrl":"","distance":"","animalTypes":[],"isGA":false,"logoUrl":"https://api.clinicsview.ivcevidensia.io/webcontent/clinics/Logo/1551"},{"id":"1280","name":"Castle Vets Pet Healthcare Centre, Reading","address":"1 Tilehurst Road, Reading, RG1 7TW","longitude":"-0.985398","latitude":"51.452076","websiteUrl":"http://www.castle-vets.co.uk","phone":"0118 957 4488","vacanciesText":"","vacanciesUrl":"","distance":"","animalTypes":[],"isGA":false,"logoUrl":"https://api.clinicsview.ivcevidensia.io/webcontent/clinics/Logo/1654"},{"id":"1281","name":"Cater Vets, Craig Y Don Surgery","address":"9 Mostyn Avenue, Llandudno, LL30 1YS","longitude":"-3.812166","latitude":"53.320538","websiteUrl":"http://www.catervets.co.uk","phone":"01492 877049","vacanciesText":"","vacanciesUrl":"","distance":"","animalTypes":[],"isGA":false,"logoUrl":"https://api.clinicsview.ivcevidensia.io/webcontent/clinics/Logo/1178"},{"id":"1283","name":"Cedarmount Veterinary Clinic, Bangor","address":"67 Bryansburn Road, Bangor, BT20 3SD","longitude":"-5.681977","latitude":"54.660496","websiteUrl":"http://www.cedarmountvets.co.uk","phone":"028 9127 1364","vacanciesText":"","vacanciesUrl":"","distance":"","animalTypes":[],"isGA":false,"logoUrl":"https://api.clinicsview.ivcevidensia.io/webcontent/clinics/Logo/1638"},{"id":"1285","name":"Celyn Vet Group, Holywell","address":"23 Brynford Street, Holywell, CH8 7RD","longitude":"-3.219872","latitude":"53.271423","websiteUrl":"http://www.celynvetgroup.co.uk","phone":"01352 713319","vacanciesText":"","vacanciesUrl":"","distance":"","animalTypes":[],"isGA":false,"logoUrl":"https://api.clinicsview.ivcevidensia.io/webcontent/clinics/Logo/1129"},{"id":"1287","name":"Chapelfield Veterinary Partnership, Brooke","address":"Veterinary Clinic, Bungay Road, NR15 1DX","longitude":"1.372264","latitude":"52.535824","websiteUrl":"http://www.chapelfieldvets.co.uk","phone":"01508 558228","vacanciesText":"","vacanciesUrl":"","distance":"","animalTypes":[],"isGA":false,"logoUrl":"https://api.clinicsview.ivcevidensia.io/webcontent/clinics/Logo/1488"},{"id":"1289","name":"Chapelfield Veterinary Partnership, Long Stratton","address":"Wellesley Road, Tharston Industrial Estate, NR15 2PD","longitude":"1.220667","latitude":"52.485397","websiteUrl":"http://www.chapelfieldvets.co.uk","phone":"01508 530686","vacanciesText":"","vacanciesUrl":"","distance":"","animalTypes":[],"isGA":false,"logoUrl":"https://api.clinicsview.ivcevidensia.io/webcontent/clinics/Logo/1484"},{"id":"1290","name":"Chapelfield Veterinary Partnership, Norwich","address":"McLintock House, 21 Chapelfield Road, NR2 1RR","longitude":"1.285792","latitude":"52.627464","websiteUrl":"http://www.chapelfieldvets.co.uk","phone":"01603 629046","vacanciesText":"","vacanciesUrl":"","distance":"","animalTypes":[],"isGA":false,"logoUrl":"https://api.clinicsview.ivcevidensia.io/webcontent/clinics/Logo/1485"},{"id":"1292","name":"Cheshire Pet, Holmes Chapel","address":"Manor Lane, Holmes Chapel, CW4 8AB","longitude":"-2.347003","latitude":"53.200077","websiteUrl":"http://www.cheshirepet.co.uk","phone":"01477 544554","vacanciesText":"","vacanciesUrl":"","distance":"","animalTypes":[],"isGA":false,"logoUrl":"https://api.clinicsview.ivcevidensia.io/webcontent/clinics/Logo/1088"},{"id":"1294","name":"Cheshire Pet, Winterley","address":"Wheelock Heath Business Court, Alsager Road, Winterley, CW11 4RQ","longitude":"-2.37534","latitude":"53.11614","websiteUrl":"http://www.cheshirepetsandbach.co.uk","phone":"01270 765555","vacanciesText":"","vacanciesUrl":"","distance":"","animalTypes":[],"isGA":false,"logoUrl":"https://api.clinicsview.ivcevidensia.io/webcontent/clinics/Logo/1988"},{"id":"1296","name":"Christopher Carter Veterinary Surgery, Southampton","address":"224 Winchester Road, Shirley, SO16 6TL","longitude":"-1.427453","latitude":"50.93025","websiteUrl":"http://www.christophercartervets.co.uk","phone":"02380 779388","vacanciesText":"","vacanciesUrl":"","distance":"","animalTypes":[],"isGA":false,"logoUrl":"https://api.clinicsview.ivcevidensia.io/webcontent/clinics/Logo/1197"},{"id":"1297","name":"Chryston Veterinary Centre, Glasgow","address":"3 Cloverhill Place, Chryston, G69 9DQ","longitude":"-4.106491","latitude":"55.902878","websiteUrl":"http://www.bishopbriggsvetcentre.com","phone":"01417 795363","vacanciesText":"","vacanciesUrl":"","distance":"","animalTypes":[],"isGA":false,"logoUrl":"https://api.clinicsview.ivcevidensia.io/webcontent/clinics/Logo/1584"},{"id":"1298","name":"Churchview Vets, Heswall","address":"46-48 Pensby Road, Heswall, CH60 7RE","longitude":"-3.097873","latitude":"53.329517","websiteUrl":"http://www.churchviewvets.co.uk","phone":"0151 342 6820","vacanciesText":"","vacanciesUrl":"","distance":"","animalTypes":[],"isGA":false,"logoUrl":"https://api.clinicsview.ivcevidensia.io/webcontent/clinics/Logo/1050"},{"id":"2310","name":"Cibyn Veterinary Clinic, Caernarfon","address":"Llanberis Road, Caernarfon, LL55 2BD","longitude":"-4.249385","latitude":"53.139595","websiteUrl":"http://www.cibynvetclinic.co.uk","phone":"01286 673026","vacanciesText":"","vacanciesUrl":"","distance":"","animalTypes":[],"isGA":false,"logoUrl":"https://api.clinicsview.ivcevidensia.io/webcontent/clinics/Logo/9451"},{"id":"1304","name":"Clare Vet Hospital, Ballyclare","address":"75 Ballynure Road, Ballyclare, BT39 9AG","longitude":"-5.98911","latitude":"54.75323","websiteUrl":"http://www.clarevetgroup.co.uk","phone":"028933 22223","vacanciesText":"","vacanciesUrl":"","distance":"","animalTypes":[],"isGA":false,"logoUrl":"https://api.clinicsview.ivcevidensia.io/webcontent/clinics/Logo/1959"},{"id":"1312","name":"Clockhouse Veterinary Hospital, Stroud","address":"Wallbridge, Stroud, GL5 3JD","longitude":"-2.222142","latitude":"51.74323","websiteUrl":"http://www.clockhousevets.co.uk","phone":"01453 752555","vacanciesText":"","vacanciesUrl":"","distance":"","animalTypes":[],"isGA":false,"logoUrl":"https://api.clinicsview.ivcevidensia.io/webcontent/clinics/Logo/1465"},{"id":"1313","name":"Cogges Veterinary Surgery, Witney","address":"The Neighbourhood Centre, Cogges Hill Road, OX28 3XY","longitude":"-1.47167","latitude":"51.7823","websiteUrl":"http://www.coggesvet.com","phone":"01993 772627","vacanciesText":"","vacanciesUrl":"","distance":"","animalTypes":[],"isGA":false,"logoUrl":"https://api.clinicsview.ivcevidensia.io/webcontent/clinics/Logo/2038"},{"id":"1315","name":"Coleraine Veterinary Practice","address":"12 Ballyrashane Road, Coleraine, BT52 2NL","longitude":"-6.61472","latitude":"55.14033","websiteUrl":"http://www.colerainevets.co.uk","phone":"028 7034 3425","vacanciesText":"","vacanciesUrl":"","distance":"","animalTypes":[],"isGA":false,"logoUrl":"https://api.clinicsview.ivcevidensia.io/webcontent/clinics/Logo/1672"},{"id":"1316","name":"Companion Veterinary Clinic, Newark","address":"9 Bullpit Road, Balderton, NG24 3PT","longitude":"-0.77643","latitude":"53.05838","websiteUrl":"http://www.companionvetclinic.co.uk","phone":"01636 707636","vacanciesText":"","vacanciesUrl":"","distance":"","animalTypes":[],"isGA":false,"logoUrl":"https://api.clinicsview.ivcevidensia.io/webcontent/clinics/Logo/1777"},{"id":"1317","name":"Congleton Vets, Congleton","address":"West Heath Retail Park, Sandbach Road, CW12 4NB","longitude":"-2.236138","latitude":"53.164925","websiteUrl":"http://www.congletonvets.com","phone":"01260 272131","vacanciesText":"","vacanciesUrl":"","distance":"","animalTypes":[],"isGA":false,"logoUrl":"https://api.clinicsview.ivcevidensia.io/webcontent/clinics/Logo/1087"},{"id":"1318","name":"Coombefield Veterinary Hospital, Axminster","address":"Coombefield Veterinary Hospital, Coombe Lane, EX13 5AX","longitude":"-2.996639","latitude":"50.78132","websiteUrl":"http://www.coombefieldvets.co.uk","phone":"01297 630500","vacanciesText":"","vacanciesUrl":"","distance":"","animalTypes":[],"isGA":false,"logoUrl":"https://api.clinicsview.ivcevidensia.io/webcontent/clinics/Logo/9885"},{"id":"1320","name":"Cootes Veterinary Clinic, Burgess Hill","address":"Gatehouse Lane, Burgess Hill, RH15 9XD","longitude":"-0.15386","latitude":"50.96164","websiteUrl":"http://www.cootes.org.uk","phone":"01444 242434","vacanciesText":"","vacanciesUrl":"","distance":"","animalTypes":[],"isGA":false,"logoUrl":"https://api.clinicsview.ivcevidensia.io/webcontent/clinics/Logo/2003"},{"id":"1322","name":"Corner House Veterinary Surgery, Exmouth","address":"84 Withycombe Village Road, Exmouth, EX8 3AG","longitude":"-3.402126","latitude":"50.628452","websiteUrl":"http://www.cornerhousevet.co.uk","phone":"01395 277775","vacanciesText":"","vacanciesUrl":"","distance":"","animalTypes":[],"isGA":false,"logoUrl":"https://api.clinicsview.ivcevidensia.io/webcontent/clinics/Logo/1719"},{"id":"1323","name":"Corner House Vets, Herne Bay","address":"20 Canterbury Road, Herne Bay, CT6 5DJ","longitude":"1.133492","latitude":"51.370754","websiteUrl":"http://www.cornerhousevets.co.uk","phone":"01227 374858","vacanciesText":"","vacanciesUrl":"","distance":"","animalTypes":[],"isGA":false,"logoUrl":"https://api.clinicsview.ivcevidensia.io/webcontent/clinics/Logo/1425"},{"id":"1324","name":"Crieff Vets, Crieff","address":"Veterinary Centre, Union Terrace, PH7 4DE","longitude":"-3.845169","latitude":"56.37149","websiteUrl":"http://www.crieffvets.co.uk","phone":"01764 652086","vacanciesText":"","vacanciesUrl":"","distance":"","animalTypes":[],"isGA":false,"logoUrl":"https://api.clinicsview.ivcevidensia.io/webcontent/clinics/Logo/1579"},{"id":"1327","name":"Crossroads Veterinary Centre, High Wycombe","address":"54 West Wycombe Road, High Wycombe, HP11 2LP","longitude":"-0.76976","latitude":"51.63651","websiteUrl":"http://www.crossroadsvetcentre.co.uk","phone":"01494 459095","vacanciesText":"","vacanciesUrl":"","distance":"","animalTypes":[],"isGA":false,"logoUrl":"https://api.clinicsview.ivcevidensia.io/webcontent/clinics/Logo/1762"},{"id":"1331","name":"Crossways Vets, Storrington","address":"43 School Hill, Storrington, RH20 4NA","longitude":"-0.45064","latitude":"50.91872","websiteUrl":"http://www.crosswaysvets.co.uk","phone":"01903 743040","vacanciesText":"","vacanciesUrl":"","distance":"","animalTypes":[],"isGA":false,"logoUrl":"https://api.clinicsview.ivcevidensia.io/webcontent/clinics/Logo/1947"},{"id":"1332","name":"Crown House Vets, Rochdale","address":"50-54 Milnrow Road, Rochdale, OL16 1UD","longitude":"-2.150815","latitude":"53.613506","websiteUrl":"http://www.crownhousevets.co.uk","phone":"01706 646815","vacanciesText":"","vacanciesUrl":"","distance":"","animalTypes":[],"isGA":false,"logoUrl":"https://api.clinicsview.ivcevidensia.io/webcontent/clinics/Logo/1734"},{"id":"1336","name":"Crown Vets, Inverness","address":"58 Argyle Street, Inverness, IV2 3BB","longitude":"-4.219298","latitude":"57.475323","websiteUrl":"http://www.crownvets.co.uk","phone":"01463 237000","vacanciesText":"","vacanciesUrl":"","distance":"","animalTypes":[],"isGA":false,"logoUrl":"https://api.clinicsview.ivcevidensia.io/webcontent/clinics/Logo/9847"},{"id":"1339","name":"Darley House Veterinary Centre, Bolton","address":"19-25 Peel Street, Farnworth, BL4 8AA","longitude":"-2.39127","latitude":"53.54944","websiteUrl":"http://www.darleyhousevets.com","phone":"01204 573413","vacanciesText":"","vacanciesUrl":"","distance":"","animalTypes":[],"isGA":false,"logoUrl":"https://api.clinicsview.ivcevidensia.io/webcontent/clinics/Logo/1950"},{"id":"1341","name":"Dave Cumber Vets, Weymouth","address":"Unit D1, Link Park, DT3 4FL","longitude":"-2.49344","latitude":"50.616","websiteUrl":"http://www.davecumbervets.co.uk","phone":"01305 784197","vacanciesText":"","vacanciesUrl":"","distance":"","animalTypes":[],"isGA":false,"logoUrl":"https://api.clinicsview.ivcevidensia.io/webcontent/clinics/Logo/1876"},{"id":"1344","name":"Deane Vets, Taunton","address":"Wellington New Road, Taunton, TA1 5LU","longitude":"-3.12777","latitude":"51.012352","websiteUrl":"http://www.deanevet.co.uk","phone":"01823 333 722","vacanciesText":"","vacanciesUrl":"","distance":"","animalTypes":[],"isGA":false,"logoUrl":"https://api.clinicsview.ivcevidensia.io/webcontent/clinics/Logo/9691"},{"id":"1346","name":"Deepdale Veterinary & Aquatic Centre, Potton Sandy","address":"Deepdale Vet Centre, Deepdale, SG19 2NH","longitude":"-0.236536","latitude":"52.127617","websiteUrl":"http://www.deepdalevet.co.uk","phone":"01767 262868","vacanciesText":"","vacanciesUrl":"","distance":"","animalTypes":[],"isGA":false,"logoUrl":"https://api.clinicsview.ivcevidensia.io/webcontent/clinics/Logo/1399"},{"id":"1347","name":"Delaware Veterinary Group, Castle Cary","address":"Fulford House, Castle Cary, BA7 7DT","longitude":"-2.526219","latitude":"51.089493","websiteUrl":"http://www.delawarevets.co.uk","phone":"01963 350307","vacanciesText":"","vacanciesUrl":"","distance":"","animalTypes":[],"isGA":false,"logoUrl":"https://api.clinicsview.ivcevidensia.io/webcontent/clinics/Logo/1544"},{"id":"1348","name":"Delaware Veterinary Group, Yeovil","address":"106 -108 Hendford Hill, Yeovil, BA20 2RF","longitude":"-2.640075","latitude":"50.935246","websiteUrl":"http://www.delawarevets.co.uk","phone":"01935 474690","vacanciesText":"","vacanciesUrl":"","distance":"","animalTypes":[],"isGA":false,"logoUrl":"https://api.clinicsview.ivcevidensia.io/webcontent/clinics/Logo/1545"},{"id":"1349","name":"DentalVets, Haddington","address":"Apex House, Alderston Field, Haldane Ave, EH41 3NQ","longitude":"-2.79027","latitude":"55.96037","websiteUrl":"http://www.dentalvets.co.uk","phone":"01620 890002","vacanciesText":"","vacanciesUrl":"","distance":"","animalTypes":[],"isGA":false,"logoUrl":"https://api.clinicsview.ivcevidensia.io/webcontent/clinics/Logo/1329"},{"id":"1355","name":"Downland Veterinary Group, Emsworth","address":"71 Havant Road, Emsworth, PO10 7NZ","longitude":"-0.950798","latitude":"50.848694","websiteUrl":"http://www.downlandvets.co.uk","phone":"01243 377141","vacanciesText":"","vacanciesUrl":"","distance":"","animalTypes":[],"isGA":false,"logoUrl":"https://api.clinicsview.ivcevidensia.io/webcontent/clinics/Logo/1600"},{"id":"2308","name":"Dragon Vets, Prestbury Park","address":"New Barn Lane, Cheltenham, GL50 4SH","longitude":"-2.06909","latitude":"51.92475","websiteUrl":"http://www.dragonvet.co.uk","phone":"01242 580324","vacanciesText":"","vacanciesUrl":"","distance":"","animalTypes":[],"isGA":false,"logoUrl":"https://api.clinicsview.ivcevidensia.io/webcontent/clinics/Logo/9449"},{"id":"1366","name":"Drumahoe Veterinary Clinic, Londonderry","address":"4 Ardlough Road, Londonderry, BT47 5SW","longitude":"-7.28083","latitude":"54.98349","websiteUrl":"http://www.drumahoevets.co.uk/","phone":"028 7131 1448","vacanciesText":"","vacanciesUrl":"","distance":"","animalTypes":[],"isGA":false,"logoUrl":"https://api.clinicsview.ivcevidensia.io/webcontent/clinics/Logo/10011"},{"id":"1367","name":"Earlswood Veterinary Hospital, Belfast","address":"193 Belmont Road, Belfast, BT4 2AE","longitude":"-5.8703","latitude":"54.600395","websiteUrl":"http://www.earlswoodveterinary.com","phone":"028 90471361","vacanciesText":"","vacanciesUrl":"","distance":"","animalTypes":[],"isGA":false,"logoUrl":"https://api.clinicsview.ivcevidensia.io/webcontent/clinics/Logo/1489"},{"id":"1375","name":"East Neuk Vet Clinic, Fife","address":"Station Road, St Monans, KY10 2DW","longitude":"-2.76542","latitude":"56.20498","websiteUrl":"http://www.eastneukvetclinic.co.uk","phone":"01333 739199","vacanciesText":"","vacanciesUrl":"","distance":"","animalTypes":[],"isGA":false,"logoUrl":"https://api.clinicsview.ivcevidensia.io/webcontent/clinics/Logo/1875"},{"id":"1378","name":"Eastbourne Vets, Seaside","address":"89-91 Seaside, Eastbourne, BN22 7NL","longitude":"0.295438","latitude":"50.772434","websiteUrl":"http://www.eastbournevets.co.uk","phone":"01323 639331","vacanciesText":"","vacanciesUrl":"","distance":"","animalTypes":[],"isGA":false,"logoUrl":"https://api.clinicsview.ivcevidensia.io/webcontent/clinics/Logo/1082"},{"id":"1382","name":"Eaton Veterinary Practice","address":"Cringleford House, 24-28 Cantley Lane, NR4 6TA","longitude":"1.23627","latitude":"52.60282","websiteUrl":"http://www.eatonvets.com","phone":"01603 455 196","vacanciesText":"","vacanciesUrl":"","distance":"","animalTypes":[],"isGA":false,"logoUrl":"https://api.clinicsview.ivcevidensia.io/webcontent/clinics/Logo/1742"},{"id":"1384","name":"Elm Veterinary Group, Milehouse Branch","address":"28 Outland Road, Milehouse, PL2 3DF","longitude":"-4.154464","latitude":"50.387226","websiteUrl":"http://www.elmvetgroup.co.uk","phone":"01752 567567","vacanciesText":"","vacanciesUrl":"","distance":"","animalTypes":[],"isGA":false,"logoUrl":"https://api.clinicsview.ivcevidensia.io/webcontent/clinics/Logo/1060"},{"id":"1387","name":"Eureka Veterinary Centre, Ashford","address":"Unit 9 Eureka Place, Trinity Road, TN25 4BY","longitude":"0.871248","latitude":"51.170483","websiteUrl":"http://www.eurekavets.co.uk","phone":"01233 611071","vacanciesText":"","vacanciesUrl":"","distance":"","animalTypes":[],"isGA":false,"logoUrl":"https://api.clinicsview.ivcevidensia.io/webcontent/clinics/Logo/1631"},{"id":"2058","name":"Fenwold Veterinary Practice, Spilsby","address":"The Estate Office, Boston Road, PE23 5HD","longitude":"0.09195","latitude":"53.16974","websiteUrl":"http://www.fenwold-vets.co.uk","phone":"01790 752227","vacanciesText":"","vacanciesUrl":"","distance":"","animalTypes":[],"isGA":false,"logoUrl":"https://api.clinicsview.ivcevidensia.io/webcontent/clinics/Logo/2136"},{"id":"1401","name":"Fields Vets, Newport","address":"214 Stow Hill, Newport, NP20 4RB","longitude":"-3.007733","latitude":"51.58299","websiteUrl":"http://www.fieldsvets.co.uk","phone":"01633 264850","vacanciesText":"","vacanciesUrl":"","distance":"","animalTypes":[],"isGA":false,"logoUrl":"https://api.clinicsview.ivcevidensia.io/webcontent/clinics/Logo/1089"},{"id":"1403","name":"Fivelands Veterinary Centre, Moseley","address":"98 Alcester Road, Moseley, B13 8EG","longitude":"-1.887947","latitude":"52.44995","websiteUrl":"http://www.fivelands.co.uk","phone":"0121 449 3716","vacanciesText":"","vacanciesUrl":"","distance":"","animalTypes":[],"isGA":false,"logoUrl":"https://api.clinicsview.ivcevidensia.io/webcontent/clinics/Logo/1680"},{"id":"1406","name":"Forest Lodge Veterinary Practice Ltd, New Milton","address":"14 Barton Court Road, New Milton, BH25 6NP","longitude":"-1.654507","latitude":"50.75038","websiteUrl":"http://www.forestlodgevets.com","phone":"01425 614482","vacanciesText":"","vacanciesUrl":"","distance":"","animalTypes":[],"isGA":false,"logoUrl":"https://api.clinicsview.ivcevidensia.io/webcontent/clinics/Logo/1235"},{"id":"1547","name":"Forest Veterinary Group,  Swansea","address":"Copper Court, Phoenix Way, SA7 9EH","longitude":"-3.91257","latitude":"51.6537","websiteUrl":"http://www.forestvetgroup.co.uk/","phone":"01792 774457","vacanciesText":"","vacanciesUrl":"","distance":"","animalTypes":[],"isGA":false,"logoUrl":"https://api.clinicsview.ivcevidensia.io/webcontent/clinics/Logo/1726"},{"id":"1407","name":"Forest Veterinary Group, Neath","address":"144 New Road, Skewen, SA10 6HH","longitude":"-3.84381","latitude":"51.66106","websiteUrl":"http://www.forestvetgroup.co.uk","phone":"01792 515630","vacanciesText":"","vacanciesUrl":"","distance":"","animalTypes":[],"isGA":false,"logoUrl":"https://api.clinicsview.ivcevidensia.io/webcontent/clinics/Logo/1716"},{"id":"1414","name":"Framlingham Vets, Framlingham","address":"Station Road, Framlingham, IP13 9EE","longitude":"1.34356","latitude":"52.21707","websiteUrl":"http://www.framlinghamvets.com","phone":"01728 621666","vacanciesText":"","vacanciesUrl":"","distance":"","animalTypes":[],"isGA":false,"logoUrl":"https://api.clinicsview.ivcevidensia.io/webcontent/clinics/Logo/1795"},{"id":"2177","name":"Fyrnwy Equine Group, Baschurch","address":"Whitmore Lane, Baschurch, SY4 2EY","longitude":"-2.85701","latitude":"52.79255","websiteUrl":"http://www.fyrnwy.co.uk","phone":"01939 260251","vacanciesText":"","vacanciesUrl":"","distance":"","animalTypes":[],"isGA":false,"logoUrl":"https://api.clinicsview.ivcevidensia.io/webcontent/clinics/Logo/9330"},{"id":"2178","name":"Fyrnwy Equine Group, Wrexham Equine Care","address":"Cornish Farm, Francis Lane, Holt, LL13 9YB","longitude":"-2.8999","latitude":"53.06751","websiteUrl":"http://www.fyrnwy.co.uk","phone":"01978 664459","vacanciesText":"","vacanciesUrl":"","distance":"","animalTypes":[],"isGA":false,"logoUrl":"https://api.clinicsview.ivcevidensia.io/webcontent/clinics/Logo/9331"},{"id":"1436","name":"GP Vets Ltd, Basingstoke","address":"65 Worting Road, Basingstoke, RG21 8YX","longitude":"-1.1103","latitude":"51.26231","websiteUrl":"http://www.gpvets.co.uk","phone":"01256 465409","vacanciesText":"","vacanciesUrl":"","distance":"","animalTypes":[],"isGA":false,"logoUrl":"https://api.clinicsview.ivcevidensia.io/webcontent/clinics/Logo/1798"},{"id":"1415","name":"Garden Lodge Veterinary Clinic, Holywood","address":"397 Old Holywood Road, Holywood, BT18 9QH","longitude":"-5.84063","latitude":"54.6275","websiteUrl":"http://www.gardenlodgevets.co.uk","phone":"02890 426587","vacanciesText":"","vacanciesUrl":"","distance":"","animalTypes":[],"isGA":false,"logoUrl":"https://api.clinicsview.ivcevidensia.io/webcontent/clinics/Logo/1758"},{"id":"1419","name":"Gatehouse Veterinary Centre Ltd, Lavister","address":"Chester Road, Lavister, LL12 0DF","longitude":"-2.938756","latitude":"53.11879","websiteUrl":"http://www.thegatehousevets.com","phone":"01244 570364","vacanciesText":"","vacanciesUrl":"","distance":"","animalTypes":[],"isGA":false,"logoUrl":"https://api.clinicsview.ivcevidensia.io/webcontent/clinics/Logo/1118"},{"id":"1420","name":"Gatehouse Veterinary Group, Allerton","address":"232 Allerton Road, Allerton, BD15 7AA","longitude":"-1.80135","latitude":"53.80281","websiteUrl":"http://www.gatehousevets.com","phone":"01274 480031","vacanciesText":"","vacanciesUrl":"","distance":"","animalTypes":[],"isGA":false,"logoUrl":"https://api.clinicsview.ivcevidensia.io/webcontent/clinics/Logo/2015"},{"id":"1423","name":"Gilmore Veterinary Surgery, Wigan","address":"52 - 54 High Street, Standish, WN6 0HF","longitude":"-2.6616","latitude":"53.585266","websiteUrl":"http://www.gilmorevets.co.uk","phone":"01257 426110","vacanciesText":"","vacanciesUrl":"","distance":"","animalTypes":[],"isGA":false,"logoUrl":"https://api.clinicsview.ivcevidensia.io/webcontent/clinics/Logo/1653"},{"id":"1424","name":"Gladstone Veterinary Clinic, Telford","address":"9 The Hadley Centre, High Street, TF1 5GQ","longitude":"-2.48271","latitude":"52.70489","websiteUrl":"http://www.gladstonevets.co.uk","phone":"01952 245145","vacanciesText":"","vacanciesUrl":"","distance":"","animalTypes":[],"isGA":false,"logoUrl":"https://api.clinicsview.ivcevidensia.io/webcontent/clinics/Logo/1760"},{"id":"1425","name":"Glaven Veterinary Practice, Holt","address":"Oakland House, Old Station Way, NR25 6DH","longitude":"1.093287","latitude":"52.903103","websiteUrl":"http://www.glavenvets.co.uk","phone":"01263 713200","vacanciesText":"","vacanciesUrl":"","distance":"","animalTypes":[],"isGA":false,"logoUrl":"https://api.clinicsview.ivcevidensia.io/webcontent/clinics/Logo/1575"},{"id":"1430","name":"Glenburn Veterinary Surgeons, Crumlin","address":"7 Nutts Corner Road, Crumlin, BT29 4BW","longitude":"-6.210562","latitude":"54.624996","websiteUrl":"http://www.glenburnvets.co.uk","phone":"028 9445 2226","vacanciesText":"","vacanciesUrl":"","distance":"","animalTypes":[],"isGA":false,"logoUrl":"https://api.clinicsview.ivcevidensia.io/webcontent/clinics/Logo/1334"},{"id":"1433","name":"Glenshane Veterinary Clinics, Maghera","address":"1 Ballynahone Road, Maghera, BT46 5DL","longitude":"-6.67559","latitude":"54.81855","websiteUrl":"http://www.glenshanevets.co.uk","phone":"028 7964 2279","vacanciesText":"","vacanciesUrl":"","distance":"","animalTypes":[],"isGA":false,"logoUrl":"https://api.clinicsview.ivcevidensia.io/webcontent/clinics/Logo/1615"},{"id":"2089","name":"Gordon Vets, Musselburgh","address":"111 Market St, Musselburgh, EH21 6PZ","longitude":"-3.06534","latitude":"55.94357","websiteUrl":"http://www.gordonvets.co.uk","phone":"0131 665 2124","vacanciesText":"","vacanciesUrl":"","distance":"","animalTypes":[],"isGA":false,"logoUrl":"https://api.clinicsview.ivcevidensia.io/webcontent/clinics/Logo/2163"},{"id":"1438","name":"Grahams Road Vet Clinic, Falkirk","address":"53 Grahams Road, Falkirk, FK2 7DJ","longitude":"-3.78436","latitude":"56.0061","websiteUrl":"http://www.grahamsroadvets.co.uk/","phone":"01324 623163","vacanciesText":"","vacanciesUrl":"","distance":"","animalTypes":[],"isGA":false,"logoUrl":"https://api.clinicsview.ivcevidensia.io/webcontent/clinics/Logo/1835"},{"id":"1439","name":"Grange Hill Vets, Lichfield","address":"Grange Lane, Lichfield, WS13 8HX","longitude":"-1.843527","latitude":"52.69594","websiteUrl":"http://www.grangehillvets.co.uk","phone":"01543 416246","vacanciesText":"","vacanciesUrl":"","distance":"","animalTypes":[],"isGA":false,"logoUrl":"https://api.clinicsview.ivcevidensia.io/webcontent/clinics/Logo/1166"},{"id":"2160","name":"Green Lane Vets, Green Lane Veterinary Clinic","address":"5 Green Lane, Marlston Cum Lache, CH4 8LS","longitude":"-2.92373","latitude":"53.16824","websiteUrl":"http://www.greenlanevets.co.uk/","phone":"01244 683858","vacanciesText":"","vacanciesUrl":"","distance":"","animalTypes":[],"isGA":false,"logoUrl":"https://api.clinicsview.ivcevidensia.io/webcontent/clinics/Logo/9311"},{"id":"1446","name":"Grove Lodge Veterinary Group, Worthing","address":"18 Upper Brighton Road, Worthing, BN14 9DL","longitude":"-0.380155","latitude":"50.83262","websiteUrl":"http://www.grovelodgevets.co.uk","phone":"01903 234 866","vacanciesText":"","vacanciesUrl":"","distance":"","animalTypes":[],"isGA":false,"logoUrl":"https://api.clinicsview.ivcevidensia.io/webcontent/clinics/Logo/1306"},{"id":"1447","name":"Grove Veterinary Centre, Barrow-In-Furness","address":"231-239 Rawlinson Street, Barrow-In-Furness, LA14 1DW","longitude":"-3.22192","latitude":"54.11331","websiteUrl":"http://www.grovevetcentre.co.uk","phone":"01229 820402","vacanciesText":"","vacanciesUrl":"","distance":"","animalTypes":[],"isGA":false,"logoUrl":"https://api.clinicsview.ivcevidensia.io/webcontent/clinics/Logo/1964"},{"id":"1454","name":"Hampton Veterinary Centre, Peterborough","address":"48 Hargate Way, Hampton Hargate, PE7 8DS","longitude":"-0.271912","latitude":"52.538616","websiteUrl":"http://www.hamptonvets.co.uk","phone":"01733 893990","vacanciesText":"","vacanciesUrl":"","distance":"","animalTypes":[],"isGA":false,"logoUrl":"https://api.clinicsview.ivcevidensia.io/webcontent/clinics/Logo/1112"},{"id":"1457","name":"Haughley Veterinary Centre, Stowmarket","address":"63 Old Street, Haughley, IP14 3NT","longitude":"0.966963","latitude":"52.220432","websiteUrl":"http://www.haughleyvets.co.uk","phone":"01449 673366","vacanciesText":"","vacanciesUrl":"","distance":"","animalTypes":[],"isGA":false,"logoUrl":"https://api.clinicsview.ivcevidensia.io/webcontent/clinics/Logo/1401"},{"id":"1458","name":"Hawkedon Veterinary Surgery, Bury St Edmunds","address":"Rede Road, Hawkedon, IP29 4NP","longitude":"0.632577","latitude":"52.153267","websiteUrl":"http://www.hawkedonvets.co.uk","phone":"01284 789428","vacanciesText":"","vacanciesUrl":"","distance":"","animalTypes":[],"isGA":false,"logoUrl":"https://api.clinicsview.ivcevidensia.io/webcontent/clinics/Logo/1625"},{"id":"1459","name":"Hawthorne Lodge Veterinary Practice, Banbury","address":"1 West Bar Street, Banbury, OX16 9SD","longitude":"-1.342381","latitude":"52.05946","websiteUrl":"http://www.hawthorne-lodge-vets-banbury.co.uk","phone":"01295 259 446","vacanciesText":"","vacanciesUrl":"","distance":"","animalTypes":[],"isGA":false,"logoUrl":"https://api.clinicsview.ivcevidensia.io/webcontent/clinics/Logo/1426"},{"id":"1460","name":"Haydon Veterinary Centre, Bridport","address":"Corbin Way, Bridport, DT6 3UX","longitude":"-2.744791","latitude":"50.748158","websiteUrl":"http://www.haydonvets.com","phone":"01308 456808","vacanciesText":"","vacanciesUrl":"","distance":"","animalTypes":[],"isGA":false,"logoUrl":"https://api.clinicsview.ivcevidensia.io/webcontent/clinics/Logo/1113"},{"id":"1467","name":"Heath Vets, Rhiwbina","address":"123-5, Heol-y-Deri, Rhiwbina, CF14 6UH","longitude":"-3.218254","latitude":"51.527435","websiteUrl":"http://www.heathvets.co.uk","phone":"02920 621 511","vacanciesText":"","vacanciesUrl":"","distance":"","animalTypes":[],"isGA":false,"logoUrl":"https://api.clinicsview.ivcevidensia.io/webcontent/clinics/Logo/1388"},{"id":"1472","name":"Highertown Vets, Truro","address":"23 Highertown, Truro, TR1 3QE","longitude":"-5.077354","latitude":"50.2618","websiteUrl":"http://www.highertownvet.co.uk","phone":"01872 273408","vacanciesText":"","vacanciesUrl":"","distance":"","animalTypes":[],"isGA":false,"logoUrl":"https://api.clinicsview.ivcevidensia.io/webcontent/clinics/Logo/1055"},{"id":"2051","name":"Highfield Veterinary Centre, Sheffield","address":"145-147 London Road, Sheffield, S2 4LH","longitude":"-1.47398","latitude":"53.36005","websiteUrl":"http://www.highfieldvets.com","phone":"011425 54663","vacanciesText":"","vacanciesUrl":"","distance":"","animalTypes":[],"isGA":false,"logoUrl":"https://api.clinicsview.ivcevidensia.io/webcontent/clinics/Logo/1975"},{"id":"1474","name":"Highgate Vets, 173 Highgate","address":"173 Highgate, Kendal, LA9 4EN","longitude":"-2.747215","latitude":"54.324593","websiteUrl":"http://www.highgate-vets.co.uk","phone":"01539 721344","vacanciesText":"","vacanciesUrl":"","distance":"","animalTypes":[],"isGA":false,"logoUrl":"https://api.clinicsview.ivcevidensia.io/webcontent/clinics/Logo/1167"},{"id":"1475","name":"Highland Veterinary Centre","address":"361 Rosliston Road, Burton-on-Trent, DE15 9RJ","longitude":"-1.623206","latitude":"52.79029","websiteUrl":"http://www.highlandvetclinic.co.uk","phone":"01283 562111","vacanciesText":"","vacanciesUrl":"","distance":"","animalTypes":[],"isGA":false,"logoUrl":"https://api.clinicsview.ivcevidensia.io/webcontent/clinics/Logo/1120"},{"id":"1476","name":"Hillman Vets, Arboretum","address":"58 Lichfield Street, Walsall, WS4 2BX","longitude":"-1.974922","latitude":"52.58991","websiteUrl":"http://www.hillmanvets.co.uk","phone":"01922 622280","vacanciesText":"","vacanciesUrl":"","distance":"","animalTypes":[],"isGA":false,"logoUrl":"https://api.clinicsview.ivcevidensia.io/webcontent/clinics/Logo/1106"},{"id":"2124","name":"Holly House Veterinary Hospital, Moortown","address":"468 Street Lane, Leeds, LS17 6HA","longitude":"-1.5343928","latitude":"53.84278","websiteUrl":"http://www.hollyhousevets.co.uk","phone":"0113 2369030","vacanciesText":"","vacanciesUrl":"","distance":"","animalTypes":[],"isGA":false,"logoUrl":"https://api.clinicsview.ivcevidensia.io/webcontent/clinics/Logo/9444"},{"id":"1485","name":"Hollygate Veterinary Clinic, Belfast","address":"21 Church Road, Carryduff, BT8 8DT","longitude":"-5.886857","latitude":"54.514545","websiteUrl":"http://www.hollygatevets.co.uk","phone":"028 9081 7109","vacanciesText":"","vacanciesUrl":"","distance":"","animalTypes":[],"isGA":false,"logoUrl":"https://api.clinicsview.ivcevidensia.io/webcontent/clinics/Logo/1516"},{"id":"1486","name":"Holmefield Veterinary Clinic, Brayton","address":"Brayton Lane, Brayton, YO8 9DZ","longitude":"-1.085941","latitude":"53.766846","websiteUrl":"http://www.holmefieldvets.com","phone":"01757 705562","vacanciesText":"","vacanciesUrl":"","distance":"","animalTypes":[],"isGA":false,"logoUrl":"https://api.clinicsview.ivcevidensia.io/webcontent/clinics/Logo/1751"},{"id":"1488","name":"Homefield Road Veterinary Surgery, Haverhill","address":"Homefield Road, Haverhill, CB9 8QP","longitude":"0.423187","latitude":"52.07342","websiteUrl":"http://www.hawkedonvets.co.uk","phone":"01284 789428","vacanciesText":"","vacanciesUrl":"","distance":"","animalTypes":[],"isGA":false,"logoUrl":"https://api.clinicsview.ivcevidensia.io/webcontent/clinics/Logo/1626"},{"id":"1489","name":"Hook Veterinary Centre, Hook","address":"Bell Meadow Road, Hook, RG27 9HG","longitude":"-0.960583","latitude":"51.281532","websiteUrl":"http://www.hookvets.com","phone":"01256 764771","vacanciesText":"","vacanciesUrl":"","distance":"","animalTypes":[],"isGA":false,"logoUrl":"https://api.clinicsview.ivcevidensia.io/webcontent/clinics/Logo/1715"},{"id":"1490","name":"Hungerford Vets, Hungerford","address":"The Veterinary Hospital, 4a Bath Road, RG17 0HE","longitude":"-1.53248","latitude":"51.41782","websiteUrl":"http://www.hungerfordvets.co.uk","phone":"01488 683999","vacanciesText":"","vacanciesUrl":"","distance":"","animalTypes":[],"isGA":false,"logoUrl":"https://api.clinicsview.ivcevidensia.io/webcontent/clinics/Logo/1823"},{"id":"1492","name":"Hunt's Veterinary Clinic, Poynton","address":"Dickens Lane, Poynton, SK12 1NU","longitude":"-2.11515","latitude":"53.34256","websiteUrl":"http://www.pet-vet.co.uk","phone":"01625 850086","vacanciesText":"","vacanciesUrl":"","distance":"","animalTypes":[],"isGA":false,"logoUrl":"https://api.clinicsview.ivcevidensia.io/webcontent/clinics/Logo/1861"},{"id":"1496","name":"ICR Vets, Loanhead","address":"44 Fountain Place, Loanhead, EH20 9DU","longitude":"-3.150599","latitude":"55.880238","websiteUrl":"http://www.icrvets.co.uk","phone":"0131 440 4229","vacanciesText":"","vacanciesUrl":"","distance":"","animalTypes":[],"isGA":false,"logoUrl":"https://api.clinicsview.ivcevidensia.io/webcontent/clinics/Logo/1619"},{"id":"1171","name":"Inglis Vets - Alphavet, Kinross","address":"39 High Street, Kinross, KY13 8AA","longitude":"-3.42137","latitude":"56.20215","websiteUrl":"http://www.inglisvets.com","phone":"01577 863328","vacanciesText":"","vacanciesUrl":"","distance":"","animalTypes":[],"isGA":false,"logoUrl":"https://api.clinicsview.ivcevidensia.io/webcontent/clinics/Logo/1787"},{"id":"1499","name":"Inglis Vets Hospital, Dunfermline","address":"120 Halbeath Road, Dunfermline, KY11 4LA","longitude":"-3.42718","latitude":"56.07782","websiteUrl":"http://www.inglisvets.com","phone":"01383 722818","vacanciesText":"","vacanciesUrl":"","distance":"","animalTypes":[],"isGA":false,"logoUrl":"https://api.clinicsview.ivcevidensia.io/webcontent/clinics/Logo/1781"},{"id":"1500","name":"Inglis Vets, Alloa","address":"Clackmannan Road, Alloa, FK10 1RR","longitude":"-3.7797","latitude":"56.11605","websiteUrl":"http://www.inglisvets.com","phone":"01259 304444","vacanciesText":"","vacanciesUrl":"","distance":"","animalTypes":[],"isGA":false,"logoUrl":"https://api.clinicsview.ivcevidensia.io/webcontent/clinics/Logo/1786"},{"id":"1501","name":"Inglis Vets, Corstorphine","address":"160 St John's Road, Edinburgh, EH12 8AY","longitude":"-3.28373","latitude":"55.94287","websiteUrl":"http://www.inglisvets.com","phone":"01313 344577","vacanciesText":"","vacanciesUrl":"","distance":"","animalTypes":[],"isGA":false,"logoUrl":"https://api.clinicsview.ivcevidensia.io/webcontent/clinics/Logo/1788"},{"id":"1502","name":"Inglis Vets, Cowdenbeath","address":"228b High Street, Cowdenbeath, KY4 9NP","longitude":"-3.34361","latitude":"56.11112","websiteUrl":"http://www.inglisvets.com","phone":"01383 510999","vacanciesText":"","vacanciesUrl":"","distance":"","animalTypes":[],"isGA":false,"logoUrl":"https://api.clinicsview.ivcevidensia.io/webcontent/clinics/Logo/1785"},{"id":"1503","name":"Inglis Vets, Inverkeithing","address":"28 High Street, Inverkeithing, KY11 1NN","longitude":"-3.39832","latitude":"56.03036","websiteUrl":"http://www.inglisvets.com","phone":"01383 616131","vacanciesText":"","vacanciesUrl":"","distance":"","animalTypes":[],"isGA":false,"logoUrl":"https://api.clinicsview.ivcevidensia.io/webcontent/clinics/Logo/1784"},{"id":"1504","name":"Inglis Vets, Kirkcaldy","address":"Unit 2-3 Chapel Level, Kirkcaldy, KY2 6RG","longitude":"-3.20607","latitude":"56.13523","websiteUrl":"http://www.inglisvets.com","phone":"01592 321234","vacanciesText":"","vacanciesUrl":"","distance":"","animalTypes":[],"isGA":false,"logoUrl":"https://api.clinicsview.ivcevidensia.io/webcontent/clinics/Logo/1783"},{"id":"1505","name":"Inglis Vets, Polbeth","address":"8 Polbeth Road, Polbeth, EH55 8SR","longitude":"-3.55619","latitude":"55.86073","websiteUrl":"http://www.inglisvets.com","phone":"01506 242444","vacanciesText":"","vacanciesUrl":"","distance":"","animalTypes":[],"isGA":false,"logoUrl":"https://api.clinicsview.ivcevidensia.io/webcontent/clinics/Logo/1789"},{"id":"1506","name":"Inshes Veterinary Centre","address":"Inshes Vets, Inverness, IV2 5FF","longitude":"-4.179476","latitude":"57.470688","websiteUrl":"http://www.inshesvets.com","phone":"01463 711777","vacanciesText":"","vacanciesUrl":"","distance":"","animalTypes":[],"isGA":false,"logoUrl":"https://api.clinicsview.ivcevidensia.io/webcontent/clinics/Logo/1395"},{"id":"1509","name":"Island Vets - Stafford","address":"115 Wolverhampton Road, Stafford, ST17 4AH","longitude":"-2.113579","latitude":"52.803","websiteUrl":"http://www.islandvet.co.uk","phone":"01785 258411","vacanciesText":"","vacanciesUrl":"","distance":"","animalTypes":[],"isGA":false,"logoUrl":"https://api.clinicsview.ivcevidensia.io/webcontent/clinics/Logo/9961"},{"id":"1512","name":"Ivybank Vets, Irvine","address":"2 Low Green Road, Irvine, KA12 8RA","longitude":"-4.670412","latitude":"55.61459","websiteUrl":"http://www.ivybankvet.com","phone":"01294 273161","vacanciesText":"","vacanciesUrl":"","distance":"","animalTypes":[],"isGA":false,"logoUrl":"https://api.clinicsview.ivcevidensia.io/webcontent/clinics/Logo/10105"},{"id":"1520","name":"Kernow Veterinary Group, Pelyn Vets - Lostwithiel","address":"Edgecumbe Road, Nomansland, PL22 0DZ","longitude":"-4.690295","latitude":"50.400597","websiteUrl":"http://www.kernowvetgroup.com","phone":"01208 872254","vacanciesText":"","vacanciesUrl":"","distance":"","animalTypes":[],"isGA":false,"logoUrl":"https://api.clinicsview.ivcevidensia.io/webcontent/clinics/Logo/1867"},{"id":"1522","name":"Kessock Equine Vets, Inverness","address":"The Paddock, Drumsmittal, IV1 3ZF","longitude":"-4.253081","latitude":"57.530666","websiteUrl":"http://www.kessockequinevets.co.uk","phone":"01463 731107","vacanciesText":"","vacanciesUrl":"","distance":"","animalTypes":[],"isGA":false,"logoUrl":"https://api.clinicsview.ivcevidensia.io/webcontent/clinics/Logo/1039"},{"id":"1523","name":"Kilbarchan Veterinary Practice, Kilbarchan","address":"11 Steeple Street, Kilbarchan, PA10 2JF","longitude":"-4.552305","latitude":"55.836224","websiteUrl":"http://www.kilbarchanvets.co.uk","phone":"01505 704248","vacanciesText":"","vacanciesUrl":"","distance":"","animalTypes":[],"isGA":false,"logoUrl":"https://api.clinicsview.ivcevidensia.io/webcontent/clinics/Logo/1246"},{"id":"1525","name":"Kingfisher Veterinary Practice, Crewkerne","address":"Tower Hill Road, Crewkerne, TA18 8EQ","longitude":"-2.798349","latitude":"50.881763","websiteUrl":"http://www.kingfishervets.co.uk","phone":"01460 72443","vacanciesText":"","vacanciesUrl":"","distance":"","animalTypes":[],"isGA":false,"logoUrl":"https://api.clinicsview.ivcevidensia.io/webcontent/clinics/Logo/1643"},{"id":"1530","name":"Kingsteignton Veterinary Group, Kingsteignton","address":"21 Gestridge Road, Kingsteignton, TQ12 3EZ","longitude":"-3.597194","latitude":"50.54804","websiteUrl":"http://www.kingsteigntonvetgroup.co.uk","phone":"01626 354260","vacanciesText":"","vacanciesUrl":"","distance":"","animalTypes":[],"isGA":false,"logoUrl":"https://api.clinicsview.ivcevidensia.io/webcontent/clinics/Logo/9784"},{"id":"1535","name":"Kingston Veterinary Group, Park Street","address":"1-2 Park Street, Anlaby Road, HU3 2JF","longitude":"-0.35176","latitude":"53.743782","websiteUrl":"http://www.kingstonvet.co.uk","phone":"01482 223688","vacanciesText":"","vacanciesUrl":"","distance":"","animalTypes":[],"isGA":false,"logoUrl":"https://api.clinicsview.ivcevidensia.io/webcontent/clinics/Logo/1096"},{"id":"1858","name":"Kingston Vets,  Sherborne","address":"Unit 5B, Coldharbour Business Park, DT9 4JW","longitude":"-2.51155","latitude":"50.94793","websiteUrl":"http://www.kingstonvets.co.uk","phone":"01935 813288","vacanciesText":"","vacanciesUrl":"","distance":"","animalTypes":[],"isGA":false,"logoUrl":"https://api.clinicsview.ivcevidensia.io/webcontent/clinics/Logo/9995"},{"id":"1542","name":"Kingswood Vets, Woking","address":"Sherpa House, Kingfield Road, GU22 9EH","longitude":"-0.551846","latitude":"51.304035","websiteUrl":"http://www.kingswoodvets.co.uk","phone":"01483 668912","vacanciesText":"","vacanciesUrl":"","distance":"","animalTypes":[],"isGA":false,"logoUrl":"https://api.clinicsview.ivcevidensia.io/webcontent/clinics/Logo/1046"},{"id":"1544","name":"Kirks Vets, Sleaford","address":"2 Lions Way, East Road, NG34 8GN","longitude":"-0.393253","latitude":"53.009598","websiteUrl":"http://www.kirksvets.co.uk","phone":"01529303344","vacanciesText":"","vacanciesUrl":"","distance":"","animalTypes":[],"isGA":false,"logoUrl":"https://api.clinicsview.ivcevidensia.io/webcontent/clinics/Logo/1326"},{"id":"1546","name":"Knockanboy Vets, Dervock","address":"136 Knock Road, Dervock, BT53 8AB","longitude":"-6.4995","latitude":"55.10265","websiteUrl":"http://www.knockanboyvets.co.uk","phone":"02820 741 252","vacanciesText":"","vacanciesUrl":"","distance":"","animalTypes":[],"isGA":false,"logoUrl":"https://api.clinicsview.ivcevidensia.io/webcontent/clinics/Logo/1811"},{"id":"2054","name":"Lady Dane Veterinary Centre, Faversham","address":"Graveney Road, Kent, ME13 8UR","longitude":"0.91461","latitude":"51.31223","websiteUrl":"http://www.ladydanevets.com","phone":"01795 532180","vacanciesText":"","vacanciesUrl":"","distance":"","animalTypes":[],"isGA":false,"logoUrl":"https://api.clinicsview.ivcevidensia.io/webcontent/clinics/Logo/2144"},{"id":"1548","name":"Lake View Veterinary Centre, Thrapston","address":"Top Close, Thrapston, NN14 4PP","longitude":"-0.515463","latitude":"52.36598","websiteUrl":"http://www.lakeviewvetcentre.co.uk","phone":"01832 732621","vacanciesText":"","vacanciesUrl":"","distance":"","animalTypes":[],"isGA":false,"logoUrl":"https://api.clinicsview.ivcevidensia.io/webcontent/clinics/Logo/1042"},{"id":"1550","name":"Lawrence Veterinary Centre, Eastwood","address":"166 Nottingham Road, Eastwood, NG16 3GG","longitude":"-1.300456","latitude":"53.01658","websiteUrl":"http://www.lawrencevets.co.uk","phone":"01773 769298","vacanciesText":"","vacanciesUrl":"","distance":"","animalTypes":[],"isGA":false,"logoUrl":"https://api.clinicsview.ivcevidensia.io/webcontent/clinics/Logo/1417"},{"id":"2065","name":"Leonard Brothers Vets, Whitchurch","address":"Station Road, Whitchurch, SY13 1RE","longitude":"-2.67493","latitude":"52.96811","websiteUrl":"http://www.lbvc.co.uk/","phone":"01948 662424","vacanciesText":"","vacanciesUrl":"","distance":"","animalTypes":[],"isGA":false,"logoUrl":"https://api.clinicsview.ivcevidensia.io/webcontent/clinics/Logo/2113"},{"id":"1553","name":"Letchworth Veterinary Centre","address":"Norton Way North, Letchworth, SG6 1BS","longitude":"-0.221679","latitude":"51.98508","websiteUrl":"http://www.letchworthvets.co.uk","phone":"01462 685882","vacanciesText":"","vacanciesUrl":"","distance":"","animalTypes":[],"isGA":false,"logoUrl":"https://api.clinicsview.ivcevidensia.io/webcontent/clinics/Logo/1461"},{"id":"1555","name":"Lincvet, Friars Lane - Lincoln","address":"43 Friars Lane, Lincoln, LN2 5AL","longitude":"-0.535029","latitude":"53.230305","websiteUrl":"http://www.lincvet.co.uk","phone":"01522 534841","vacanciesText":"","vacanciesUrl":"","distance":"","animalTypes":[],"isGA":false,"logoUrl":"https://api.clinicsview.ivcevidensia.io/webcontent/clinics/Logo/1170"},{"id":"1558","name":"Links Veterinary Group, Haddington","address":"Alderston Field, Haldane Ave, EH41 3NQ","longitude":"-2.79996","latitude":"55.959","websiteUrl":"http://www.linksvet.co.uk","phone":"01620 822 262","vacanciesText":"","vacanciesUrl":"","distance":"","animalTypes":[],"isGA":false,"logoUrl":"https://api.clinicsview.ivcevidensia.io/webcontent/clinics/Logo/1241"},{"id":"1223","name":"Lockwood Animal Hospital, Bearwood Veterinary Clinic","address":"1-2 Lightwoods Road, Bearwood, B67 5AY","longitude":"-1.971615","latitude":"52.476418","websiteUrl":"http://www.veterinary.org.uk","phone":"0121 429 1400","vacanciesText":"","vacanciesUrl":"","distance":"","animalTypes":[],"isGA":false,"logoUrl":"https://api.clinicsview.ivcevidensia.io/webcontent/clinics/Logo/1231"},{"id":"1244","name":"Lockwood Animal Hospital, Blackheath Veterinary Centre","address":"19 Long Lane, Blackheath, B62 9LL","longitude":"-2.036024","latitude":"52.473114","websiteUrl":"http://www.veterinary.org.uk","phone":"0121 559 1599","vacanciesText":"","vacanciesUrl":"","distance":"","animalTypes":[],"isGA":false,"logoUrl":"https://api.clinicsview.ivcevidensia.io/webcontent/clinics/Logo/1561"},{"id":"1469","name":"Lockwood Animal Hospital, Hednesford Animal Hospital","address":"12 Market Street, Hednesford, WS12 1AF","longitude":"-1.997663","latitude":"52.70807","websiteUrl":"http://www.veterinary.org.uk","phone":"01543 878625","vacanciesText":"","vacanciesUrl":"","distance":"","animalTypes":[],"isGA":false,"logoUrl":"https://api.clinicsview.ivcevidensia.io/webcontent/clinics/Logo/1560"},{"id":"1742","name":"Lockwood Animal Hospital, Rosewood Vets, Coseley","address":"1 Mason Street, Coseley, WV14 9SZ","longitude":"-2.068402","latitude":"52.51384","websiteUrl":"http://www.veterinary.org.uk","phone":"01902 671777","vacanciesText":"","vacanciesUrl":"","distance":"","animalTypes":[],"isGA":false,"logoUrl":"https://api.clinicsview.ivcevidensia.io/webcontent/clinics/Logo/1558"},{"id":"1794","name":"Lockwood Animal Hospital, St Georges Veterinary Centre","address":"6 Gower Street, Telford, TF2 9JR","longitude":"-2.43589","latitude":"52.69524","websiteUrl":"http://www.veterinary.org.uk","phone":"01952 610500","vacanciesText":"","vacanciesUrl":"","distance":"","animalTypes":[],"isGA":false,"logoUrl":"https://api.clinicsview.ivcevidensia.io/webcontent/clinics/Logo/9992"},{"id":"1966","name":"Lockwood Animal Hospital, Waterfront Veterinary Centre","address":"125 Dudley Road, Brierley Hill, DY5 1HD","longitude":"-2.120831","latitude":"52.48713","websiteUrl":"http://www.veterinary.org.uk","phone":"01384 482121","vacanciesText":"","vacanciesUrl":"","distance":"","animalTypes":[],"isGA":false,"logoUrl":"https://api.clinicsview.ivcevidensia.io/webcontent/clinics/Logo/1562"},{"id":"1562","name":"Lockwood Animal Hospital, Willenhall","address":"84 Lower Lichfield Street, Willenhall, WV13 1QE","longitude":"-2.051187","latitude":"52.585728","websiteUrl":"http://www.veterinary.org.uk","phone":"01902 605080","vacanciesText":"","vacanciesUrl":"","distance":"","animalTypes":[],"isGA":false,"logoUrl":"https://api.clinicsview.ivcevidensia.io/webcontent/clinics/Logo/1557"},{"id":"1563","name":"London Road Veterinary Centre, King's Lynn","address":"Dallas Court, Hospital Walk, PE30 5QA","longitude":"0.402805","latitude":"52.74873","websiteUrl":"http://www.londonroadvets.co.uk","phone":"01553 773168","vacanciesText":"","vacanciesUrl":"","distance":"","animalTypes":[],"isGA":false,"logoUrl":"https://api.clinicsview.ivcevidensia.io/webcontent/clinics/Logo/1422"},{"id":"1566","name":"Lowesmoor House Vets, Worcester","address":"18 Rainbow Hill, Worcester, WR3 8LX","longitude":"-2.213285","latitude":"52.197796","websiteUrl":"http://www.lowesmoorvets.co.uk","phone":"01905 723361","vacanciesText":"","vacanciesUrl":"","distance":"","animalTypes":[],"isGA":false,"logoUrl":"https://api.clinicsview.ivcevidensia.io/webcontent/clinics/Logo/1162"},{"id":"1568","name":"Lynton House Vets, Woking","address":"12 Well Lane, Woking, GU21 4PA","longitude":"-0.57543","latitude":"51.31955","websiteUrl":"http://www.lyntonhousevets.co.uk","phone":"01483 761096","vacanciesText":"","vacanciesUrl":"","distance":"","animalTypes":[],"isGA":false,"logoUrl":"https://api.clinicsview.ivcevidensia.io/webcontent/clinics/Logo/1981"},{"id":"1570","name":"Maltman Cosham Veterinary Clinic, Horsham","address":"Lyons Farm Estate, Slinford, RH13 0QP","longitude":"-0.39033","latitude":"51.06878","websiteUrl":"http://www.maltmancosham.co.uk","phone":"01403 791011","vacanciesText":"","vacanciesUrl":"","distance":"","animalTypes":[],"isGA":false,"logoUrl":"https://api.clinicsview.ivcevidensia.io/webcontent/clinics/Logo/1730"},{"id":"1571","name":"Manor Veterinary Clinic, Folkestone","address":"Pent Road, Shearway Business Park, CT19 4RH","longitude":"1.150746","latitude":"51.095066","websiteUrl":"http://www.manorveterinaryclinic.co.uk","phone":"01303 273203","vacanciesText":"","vacanciesUrl":"","distance":"","animalTypes":[],"isGA":false,"logoUrl":"https://api.clinicsview.ivcevidensia.io/webcontent/clinics/Logo/1007"},{"id":"1577","name":"Market Veterinary Centre, Barnstaple","address":"Unit A, Riverview Commercial Centre, Riverside Road, Pottington, EX31 1QN","longitude":"-4.081708","latitude":"51.084557","websiteUrl":"http://www.marketvets.co.uk","phone":"01271 344 262","vacanciesText":"","vacanciesUrl":"","distance":"","animalTypes":[],"isGA":false,"logoUrl":"https://api.clinicsview.ivcevidensia.io/webcontent/clinics/Logo/1667"},{"id":"1578","name":"Market Veterinary Centre, South Molton","address":"The Surgery, Southley Road, South Molton, EX36 4BL","longitude":"-3.834332","latitude":"51.016308","websiteUrl":"http://www.marketvets.co.uk","phone":"01769 572 176","vacanciesText":"","vacanciesUrl":"","distance":"","animalTypes":[],"isGA":false,"logoUrl":"https://api.clinicsview.ivcevidensia.io/webcontent/clinics/Logo/1668"},{"id":"1582","name":"Martin Veterinary Centre, Kirkintilloch","address":"10 Strathkelvin Place, Southbank Marina, G66 1XT","longitude":"-4.15761","latitude":"55.93517","websiteUrl":"http://www.martinvetcentre.co.uk","phone":"0141 775 2503","vacanciesText":"","vacanciesUrl":"","distance":"","animalTypes":[],"isGA":false,"logoUrl":"https://api.clinicsview.ivcevidensia.io/webcontent/clinics/Logo/1957"},{"id":"1581","name":"Martin and Carr Veterinary Surgeons, Pershore","address":"The Old Well, Station Approach, WR10 2DB","longitude":"-2.07337","latitude":"52.13045","websiteUrl":"http://www.martinandcarrvets.co.uk","phone":"01386 553631","vacanciesText":"","vacanciesUrl":"","distance":"","animalTypes":[],"isGA":false,"logoUrl":"https://api.clinicsview.ivcevidensia.io/webcontent/clinics/Logo/1649"},{"id":"1591","name":"McPhersons Veterinary Practice, Rainworth","address":"166 Southwell Road East, Rainworth, NG21 0EH","longitude":"-1.127033","latitude":"53.121426","websiteUrl":"http://www.mcphersonsvets.com/","phone":"01623 798050","vacanciesText":"","vacanciesUrl":"","distance":"","animalTypes":[],"isGA":false,"logoUrl":"https://api.clinicsview.ivcevidensia.io/webcontent/clinics/Logo/1421"},{"id":"1587","name":"Mckenzie Vets, Alexandria","address":"26 Gilmour Street, Alexandria, G83 0DA","longitude":"-4.583424","latitude":"55.987114","websiteUrl":"http://www.mckenzievets.co.uk","phone":"01389 751182","vacanciesText":"","vacanciesUrl":"","distance":"","animalTypes":[],"isGA":false,"logoUrl":"https://api.clinicsview.ivcevidensia.io/webcontent/clinics/Logo/1412"},{"id":"1594","name":"Mearley Veterinary Group, Clitheroe","address":"Holden Sreet, Clitheroe, BB7 1LU","longitude":"-2.386419","latitude":"53.87258","websiteUrl":"http://www.mearleyvets.co.uk","phone":"01200 423763","vacanciesText":"","vacanciesUrl":"","distance":"","animalTypes":[],"isGA":false,"logoUrl":"https://api.clinicsview.ivcevidensia.io/webcontent/clinics/Logo/1418"},{"id":"1595","name":"Midforest Veterinary Practice, Lyndhurst","address":"Glenber Cottage, Beechen Lane, SO43 7DD","longitude":"-1.571484","latitude":"50.863655","websiteUrl":"http://www.midforestvets.co.uk","phone":"023 8028 2358","vacanciesText":"","vacanciesUrl":"","distance":"","animalTypes":[],"isGA":false,"logoUrl":"https://api.clinicsview.ivcevidensia.io/webcontent/clinics/Logo/1357"},{"id":"1596","name":"Midforest Veterinary Practice, Totton","address":"Kingfisher House, Ringwood Road, SO40 7DY","longitude":"-1.516447","latitude":"50.914986","websiteUrl":"http://www.midforestvets.co.uk","phone":"023 8066 0400","vacanciesText":"","vacanciesUrl":"","distance":"","animalTypes":[],"isGA":false,"logoUrl":"https://api.clinicsview.ivcevidensia.io/webcontent/clinics/Logo/1358"},{"id":"1793","name":"Midhurst Vets, Midhurst","address":"Hannam House, Lamberts Lane, GU29 9EA","longitude":"-0.739524","latitude":"50.988743","websiteUrl":"http://www.midhurstvets.co.uk","phone":"01730 816833","vacanciesText":"","vacanciesUrl":"","distance":"","animalTypes":[],"isGA":false,"logoUrl":"https://api.clinicsview.ivcevidensia.io/webcontent/clinics/Logo/9822"},{"id":"1597","name":"Midland Veterinary Surgery, Leyton","address":"655 High Road, Leyton, E10 6RA","longitude":"-0.008594","latitude":"51.571156","websiteUrl":"http://www.midlandvetsurgery.co.uk","phone":"020 8539 3538","vacanciesText":"","vacanciesUrl":"","distance":"","animalTypes":[],"isGA":false,"logoUrl":"https://api.clinicsview.ivcevidensia.io/webcontent/clinics/Logo/1647"},{"id":"1599","name":"Milan Veterinary Clinic, Castletown","address":"Shore Road, Castletown, IM9 1BF","longitude":"-4.629837","latitude":"54.07192","websiteUrl":"http://www.milanvets.co.uk","phone":"01624 823710","vacanciesText":"","vacanciesUrl":"","distance":"","animalTypes":[],"isGA":false,"logoUrl":"https://api.clinicsview.ivcevidensia.io/webcontent/clinics/Logo/1301"},{"id":"1603","name":"Mill House Veterinary Surgery & Hospital, King's Lynn","address":"20 Tennyson Avenue, Kings Lynn, PE30 2QG","longitude":"0.411318","latitude":"52.75558","websiteUrl":"http://www.millhousevets.co.uk","phone":"01553 771457","vacanciesText":"","vacanciesUrl":"","distance":"","animalTypes":[],"isGA":false,"logoUrl":"https://api.clinicsview.ivcevidensia.io/webcontent/clinics/Logo/1296"},{"id":"1604","name":"Millburn Veterinary Practice, Coleraine","address":"135 Millburn Road, Coleraine, BT52 1QY","longitude":"-6.6664","latitude":"55.139626","websiteUrl":"http://www.millburnvets.co.uk","phone":"028 7034 4842","vacanciesText":"","vacanciesUrl":"","distance":"","animalTypes":[],"isGA":false,"logoUrl":"https://api.clinicsview.ivcevidensia.io/webcontent/clinics/Logo/1541"},{"id":"1605","name":"Millpark Veterinary Centre Ltd, Newent","address":"Cleeve Mill Business Park, Newent, GL18 1AZ","longitude":"-2.396191","latitude":"51.933395","websiteUrl":"http://www.millparkvets.com","phone":"01531 820258","vacanciesText":"","vacanciesUrl":"","distance":"","animalTypes":[],"isGA":false,"logoUrl":"https://api.clinicsview.ivcevidensia.io/webcontent/clinics/Logo/1045"},{"id":"1606","name":"Mintlaw Vet Surgery, Mintlaw","address":"Dunshillock, Mintlaw, AB42 4JN","longitude":"-2.022762","latitude":"57.528812","websiteUrl":"http://www.mintlawvets.co.uk","phone":"01771 624001","vacanciesText":"","vacanciesUrl":"","distance":"","animalTypes":[],"isGA":false,"logoUrl":"https://api.clinicsview.ivcevidensia.io/webcontent/clinics/Logo/1271"},{"id":"1608","name":"Miramar Veterinary Centre","address":"15 Weybourne Road, Sheringham, NR26 8HF","longitude":"1.20224","latitude":"52.94193","websiteUrl":"http://www.miramarvetcentre.co.uk","phone":"01263 822293","vacanciesText":"","vacanciesUrl":"","distance":"","animalTypes":[],"isGA":false,"logoUrl":"https://api.clinicsview.ivcevidensia.io/webcontent/clinics/Logo/1775"},{"id":"1609","name":"Moorview Referrals, Cramlington","address":"Northumberland Business Park West, Cramlington, NE23 7RH","longitude":"-1.594249","latitude":"55.065117","websiteUrl":"http://www.moorviewvets.co.uk","phone":"0191 3388890","vacanciesText":"","vacanciesUrl":"","distance":"","animalTypes":[],"isGA":false,"logoUrl":"https://api.clinicsview.ivcevidensia.io/webcontent/clinics/Logo/1156"},{"id":"1611","name":"Moorview Vets, Backworth","address":"Station Road, Backworth, NE27 0AA","longitude":"-1.522668","latitude":"55.036964","websiteUrl":"http://www.moorviewvets.co.uk","phone":"0191 2503800","vacanciesText":"","vacanciesUrl":"","distance":"","animalTypes":[],"isGA":false,"logoUrl":"https://api.clinicsview.ivcevidensia.io/webcontent/clinics/Logo/1378"},{"id":"1644","name":"Moy Vets, Norcross Lane","address":"Norcross Lane, Thornton Cleveleys, FY5 3FT","longitude":"-3.012837","latitude":"53.86379","websiteUrl":"http://www.moyvets.co.uk","phone":"01253 854545","vacanciesText":"","vacanciesUrl":"","distance":"","animalTypes":[],"isGA":false,"logoUrl":"https://api.clinicsview.ivcevidensia.io/webcontent/clinics/Logo/1769"},{"id":"1619","name":"Mulberry Vets, Sudbury","address":"171 - 173 Melford Road, Sudbury, CO10 1JU","longitude":"0.726625","latitude":"52.045906","websiteUrl":"http://www.mulberryvets.co.uk","phone":"01787 881888","vacanciesText":"","vacanciesUrl":"","distance":"","animalTypes":[],"isGA":false,"logoUrl":"https://api.clinicsview.ivcevidensia.io/webcontent/clinics/Logo/1015"},{"id":"1135","name":"Myerscough Veterinary Group, Blackburn","address":"91 Preston New Road, Blackburn, BB2 6AY","longitude":"-2.491877","latitude":"53.751892","websiteUrl":"http://www.myvets.co.uk","phone":"01254 681811","vacanciesText":"","vacanciesUrl":"","distance":"","animalTypes":[],"isGA":false,"logoUrl":"https://api.clinicsview.ivcevidensia.io/webcontent/clinics/Logo/1236"},{"id":"1622","name":"Myerscough Veterinary Group, Clayton Le Dale","address":"Myerscough House, Longsight Road, BB2 7JA","longitude":"-2.524528","latitude":"53.787228","websiteUrl":"http://www.myvets.co.uk","phone":"01254 814863","vacanciesText":"","vacanciesUrl":"","distance":"","animalTypes":[],"isGA":false,"logoUrl":"https://api.clinicsview.ivcevidensia.io/webcontent/clinics/Logo/1359"},{"id":"1136","name":"Myerscough Veterinary Group, Darwen","address":"Station House, Railway Road, BB3 2RJ","longitude":"-2.465233","latitude":"53.697144","websiteUrl":"http://www.myvets.co.uk","phone":"01254 777005","vacanciesText":"","vacanciesUrl":"","distance":"","animalTypes":[],"isGA":false,"logoUrl":"https://api.clinicsview.ivcevidensia.io/webcontent/clinics/Logo/1237"},{"id":"1637","name":"Natures Vet, Paulton","address":"Old School House, Church Street, BS39 7LG","longitude":"-2.503145","latitude":"51.30741","websiteUrl":"http://www.naturesvetclinic.co.uk","phone":"01761 411705","vacanciesText":"","vacanciesUrl":"","distance":"","animalTypes":[],"isGA":false,"logoUrl":"https://api.clinicsview.ivcevidensia.io/webcontent/clinics/Logo/1029"},{"id":"1639","name":"New Malden Vets, Kingston upon Thames","address":"14 Burlington Road, New Malden, KT3 4NY","longitude":"-0.253472","latitude":"51.39866","websiteUrl":"http://www.newmaldenvets.com","phone":"020 8942 2202","vacanciesText":"","vacanciesUrl":"","distance":"","animalTypes":[],"isGA":false,"logoUrl":"https://api.clinicsview.ivcevidensia.io/webcontent/clinics/Logo/1186"},{"id":"2194","name":"New Priory Vets, Brighton","address":"The Deneway, London Road, Brighton, BN1 8QR","longitude":"-0.15519","latitude":"50.85656","websiteUrl":"http://www.newprioryvets.com","phone":"01273 540430","vacanciesText":"","vacanciesUrl":"","distance":"","animalTypes":[],"isGA":false,"logoUrl":"https://api.clinicsview.ivcevidensia.io/webcontent/clinics/Logo/9350"},{"id":"1641","name":"New Street Vets, Honiton","address":"62 New Street, Honiton, EX14 1BZ","longitude":"-3.186624","latitude":"50.797356","websiteUrl":"http://www.newstreetvets.co.uk","phone":"01404 42750","vacanciesText":"","vacanciesUrl":"","distance":"","animalTypes":[],"isGA":false,"logoUrl":"https://api.clinicsview.ivcevidensia.io/webcontent/clinics/Logo/1641"},{"id":"2175","name":"Nithsdale Vets, Dumfries","address":"Martinton Place, Heathhall, DG1 3QN","longitude":"-3.58034","latitude":"55.10183","websiteUrl":"http://www.nithsdalevets.co.uk","phone":"01387 253402","vacanciesText":"","vacanciesUrl":"","distance":"","animalTypes":[],"isGA":false,"logoUrl":"https://api.clinicsview.ivcevidensia.io/webcontent/clinics/Logo/9328"},{"id":"2176","name":"Nithsdale Vets, Thornhill","address":"Drumlanrig Street, Thornhill, DG3 5LU","longitude":"-3.76478","latitude":"55.24068","websiteUrl":"http://www.nithsdalevets.co.uk","phone":"01848 330220","vacanciesText":"","vacanciesUrl":"","distance":"","animalTypes":[],"isGA":false,"logoUrl":"https://api.clinicsview.ivcevidensia.io/webcontent/clinics/Logo/9329"},{"id":"1647","name":"Northdale Veterinary Practice, Worthing","address":"48 Victoria Road, Worthing, BN11 1XE","longitude":"-0.376823","latitude":"50.816906","websiteUrl":"http://www.northdale.co.uk","phone":"01903 202474","vacanciesText":"","vacanciesUrl":"","distance":"","animalTypes":[],"isGA":false,"logoUrl":"https://api.clinicsview.ivcevidensia.io/webcontent/clinics/Logo/1145"},{"id":"1649","name":"Oakfield Veterinary Surgery, Atherstone","address":"2 Margaret Road, Atherstone, CV9 1EE","longitude":"-1.541578","latitude":"52.572193","websiteUrl":"http://www.oakfield.net","phone":"01827 713149","vacanciesText":"","vacanciesUrl":"","distance":"","animalTypes":[],"isGA":false,"logoUrl":"https://api.clinicsview.ivcevidensia.io/webcontent/clinics/Logo/1072"},{"id":"1650","name":"Oakfield Veterinary Surgery, Castle Bromwich","address":"713/715 Chester Road, Bacons End, B36 0LN","longitude":"-1.741196","latitude":"52.492374","websiteUrl":"http://www.oakfield.net","phone":"0121 770 4966","vacanciesText":"","vacanciesUrl":"","distance":"","animalTypes":[],"isGA":false,"logoUrl":"https://api.clinicsview.ivcevidensia.io/webcontent/clinics/Logo/1074"},{"id":"1651","name":"Oakfield Veterinary Surgery, Tamworth","address":"The Old Library, Hockley Road, B77 5EF","longitude":"-1.666734","latitude":"52.604794","websiteUrl":"http://www.oakfield.net","phone":"01827 281284","vacanciesText":"","vacanciesUrl":"","distance":"","animalTypes":[],"isGA":false,"logoUrl":"https://api.clinicsview.ivcevidensia.io/webcontent/clinics/Logo/1073"},{"id":"1652","name":"Oakmount Veterinary Centre, Burnley","address":"Trafalgar Street, Burnley, BB11 1TP","longitude":"-2.248021","latitude":"53.785614","websiteUrl":"http://www.oakmountvets.co.uk","phone":"01282 423640","vacanciesText":"","vacanciesUrl":"","distance":"","animalTypes":[],"isGA":false,"logoUrl":"https://api.clinicsview.ivcevidensia.io/webcontent/clinics/Logo/1707"},{"id":"1894","name":"Orchard Vets, Ashurst","address":"163 Lyndhurst Road, Ashurst, SO40 7AW","longitude":"-1.520699","latitude":"50.892925","websiteUrl":"http://www.orchardvet.co.uk/","phone":"023 8029 3569","vacanciesText":"","vacanciesUrl":"","distance":"","animalTypes":[],"isGA":false,"logoUrl":"https://api.clinicsview.ivcevidensia.io/webcontent/clinics/Logo/10121"},{"id":"1656","name":"Orchard Vets, Romsey","address":"Orchard Veterinary Surgery, 121a The Hundred, SO51 8BZ","longitude":"-1.494113","latitude":"50.988503","websiteUrl":"http://www.orchardvet.co.uk","phone":"01794 830288","vacanciesText":"","vacanciesUrl":"","distance":"","animalTypes":[],"isGA":false,"logoUrl":"https://api.clinicsview.ivcevidensia.io/webcontent/clinics/Logo/1093"},{"id":"1658","name":"Orwell Veterinary Group, Grange Farm Vet Hospital, Kesgrave","address":"1 Tommy Flowers Drive, Hartree Way, Grange Farm, IP5 2BZ","longitude":"1.257037","latitude":"52.061695","websiteUrl":"http://www.orwellvets.co.uk","phone":"01473 333677","vacanciesText":"","vacanciesUrl":"","distance":"","animalTypes":[],"isGA":false,"logoUrl":"https://api.clinicsview.ivcevidensia.io/webcontent/clinics/Logo/1313"},{"id":"2112","name":"Park Issa Veterinary Hospital, Oswestry","address":"Salop Rd, Oswestry, SY11 2RL","longitude":"-3.05054","latitude":"52.85655","websiteUrl":"http://www.parkissa.com","phone":"01691 670067","vacanciesText":"","vacanciesUrl":"","distance":"","animalTypes":[],"isGA":false,"logoUrl":"https://api.clinicsview.ivcevidensia.io/webcontent/clinics/Logo/9454"},{"id":"1666","name":"Park View Veterinary Hospital, North Hykeham","address":"Hykeham Green, Lincoln Road, LN6 8NH","longitude":"-0.587025","latitude":"53.183117","websiteUrl":"http://www.parkviewvethospital.co.uk","phone":"01522 683300","vacanciesText":"","vacanciesUrl":"","distance":"","animalTypes":[],"isGA":false,"logoUrl":"https://api.clinicsview.ivcevidensia.io/webcontent/clinics/Logo/1196"},{"id":"1675","name":"Parkvets, Sidcup","address":"53â55 Maidstone Road, Foots Cray, DA14 5HB","longitude":"0.123128","latitude":"51.41673","websiteUrl":"http://www.parkvets.com","phone":"020 8300 8111","vacanciesText":"","vacanciesUrl":"","distance":"","animalTypes":[],"isGA":false,"logoUrl":"https://api.clinicsview.ivcevidensia.io/webcontent/clinics/Logo/1387"},{"id":"2103","name":"Paws Colchester Veterinary Centre, Colchester","address":"Willows Court, Willows Shopping Centre, 10 The Willows, Mersea Road, CO2 8PZ","longitude":"0.90745","latitude":"51.87059","websiteUrl":"http://www.pawscolchestervets.co.uk","phone":"01206 561407","vacanciesText":"","vacanciesUrl":"","distance":"","animalTypes":[],"isGA":false,"logoUrl":"https://api.clinicsview.ivcevidensia.io/webcontent/clinics/Logo/2160"},{"id":"2060","name":"Paxton Vets, South Norwood","address":"30 Clifton Road, London, SE25 6NJ","longitude":"-0.0874","latitude":"51.39718","websiteUrl":"http://www.paxtonvets.co.uk","phone":"0208 6533355","vacanciesText":"","vacanciesUrl":"","distance":"","animalTypes":[],"isGA":false,"logoUrl":"https://api.clinicsview.ivcevidensia.io/webcontent/clinics/Logo/2129"},{"id":"2061","name":"Paxton Vets, West Norwood","address":"231 Gipsy Road, London, SE27 9QY","longitude":"-0.09352","latitude":"51.42766","websiteUrl":"http://www.paxtonvets.co.uk","phone":"0208 6701772","vacanciesText":"","vacanciesUrl":"","distance":"","animalTypes":[],"isGA":false,"logoUrl":"https://api.clinicsview.ivcevidensia.io/webcontent/clinics/Logo/2130"},{"id":"1678","name":"Pengelly and Mizen Veterinary Surgeons, Peterborough","address":"89-93 Park Road, Peterborough, PE1 2TR","longitude":"-0.240862","latitude":"52.57871","websiteUrl":"http://www.pengellyandmizen.co.uk","phone":"01733 554953","vacanciesText":"","vacanciesUrl":"","distance":"","animalTypes":[],"isGA":false,"logoUrl":"https://api.clinicsview.ivcevidensia.io/webcontent/clinics/Logo/1004"},{"id":"1684","name":"Penmellyn Vets, St. Columb Major Hospital","address":"Station Road, Saint Columb Major, TR9 6BX","longitude":"-4.94175","latitude":"50.42968","websiteUrl":"http://www.penmellynvet.co.uk/","phone":"01637 880307","vacanciesText":"","vacanciesUrl":"","distance":"","animalTypes":[],"isGA":false,"logoUrl":"https://api.clinicsview.ivcevidensia.io/webcontent/clinics/Logo/1800"},{"id":"1691","name":"Plymouth Veterinary Group, Plymouth","address":"26 William Prance Road, Derriford, PL6 5WR","longitude":"-4.119709","latitude":"50.411034","websiteUrl":"http://www.plymouthvets.co.uk","phone":"01752 702646","vacanciesText":"","vacanciesUrl":"","distance":"","animalTypes":[],"isGA":false,"logoUrl":"https://api.clinicsview.ivcevidensia.io/webcontent/clinics/Logo/1101"},{"id":"1699","name":"Pool House Veterinary Hospital, Lichfield Hospital","address":"Fosseway Lane, Lichfield, WS13 8JY","longitude":"-1.84837","latitude":"52.66878","websiteUrl":"http://www.poolhousevets.com/","phone":"01543 262464","vacanciesText":"","vacanciesUrl":"","distance":"","animalTypes":[],"isGA":false,"logoUrl":"https://api.clinicsview.ivcevidensia.io/webcontent/clinics/Logo/2005"},{"id":"1701","name":"Portchester Vets, Fareham","address":"147-149 White Hart Lane, Portchester, PO16 9AY","longitude":"-1.131081","latitude":"50.842163","websiteUrl":"http://www.portchestervets.co.uk/","phone":"02392 377277","vacanciesText":"","vacanciesUrl":"","distance":"","animalTypes":[],"isGA":false,"logoUrl":"https://api.clinicsview.ivcevidensia.io/webcontent/clinics/Logo/1428"},{"id":"1703","name":"Portland House Vets, Retford","address":"53 Churchgate, Retford, DN22 6PA","longitude":"-0.941561","latitude":"53.324383","websiteUrl":"http://www.portlandhousevetgroup.co.uk","phone":"01777 703663","vacanciesText":"","vacanciesUrl":"","distance":"","animalTypes":[],"isGA":false,"logoUrl":"https://api.clinicsview.ivcevidensia.io/webcontent/clinics/Logo/10161"},{"id":"1712","name":"Provost Vet Group, Ladybank","address":"Cupar Road, Ladybank, KY15 7LS","longitude":"-3.12975","latitude":"56.280296","websiteUrl":"http://www.provostvet.co.uk","phone":"01337 832600","vacanciesText":"","vacanciesUrl":"","distance":"","animalTypes":[],"isGA":false,"logoUrl":"https://api.clinicsview.ivcevidensia.io/webcontent/clinics/Logo/1304"},{"id":"1714","name":"Provost Vet Group, St Andrews","address":"31 Largo Road, St Andrews, KY16 8NJ","longitude":"-2.804634","latitude":"56.330044","websiteUrl":"http://www.provostvet.co.uk","phone":"01334 466800","vacanciesText":"","vacanciesUrl":"","distance":"","animalTypes":[],"isGA":false,"logoUrl":"https://api.clinicsview.ivcevidensia.io/webcontent/clinics/Logo/1303"},{"id":"1716","name":"Purton Vets, Purton","address":"77 High Street, Purton, SN5 4AB","longitude":"-1.867607","latitude":"51.587784","websiteUrl":"http://www.purtonvets.co.uk","phone":"01793 771869","vacanciesText":"","vacanciesUrl":"","distance":"","animalTypes":[],"isGA":false,"logoUrl":"https://api.clinicsview.ivcevidensia.io/webcontent/clinics/Logo/1075"},{"id":"1719","name":"Rhodes Vets, Kingsthorpe","address":"95 Queens Park Parade, Kingsthorpe, NN2 6LR","longitude":"-0.900184","latitude":"52.25748","websiteUrl":"http://www.rhodes-vets.co.uk","phone":"01604 712 070","vacanciesText":"","vacanciesUrl":"","distance":"","animalTypes":[],"isGA":false,"logoUrl":"https://api.clinicsview.ivcevidensia.io/webcontent/clinics/Logo/1070"},{"id":"1722","name":"Riverside Veterinary Centre, Belper","address":"Unit 3 Goods Wharf, Goods Road, DE56 1UU","longitude":"-1.484438","latitude":"53.01715","websiteUrl":"http://www.riversidevetsbelper.co.uk","phone":"01773 829544","vacanciesText":"","vacanciesUrl":"","distance":"","animalTypes":[],"isGA":false,"logoUrl":"https://api.clinicsview.ivcevidensia.io/webcontent/clinics/Logo/1249"},{"id":"1723","name":"Riverside Vets, Spalding","address":"Cradge Bank, Spalding, PE11 3AB","longitude":"-0.16659","latitude":"52.77193","websiteUrl":"http://www.riverside-vets.co.uk","phone":"01775 723066","vacanciesText":"","vacanciesUrl":"","distance":"","animalTypes":[],"isGA":false,"logoUrl":"https://api.clinicsview.ivcevidensia.io/webcontent/clinics/Logo/1955"},{"id":"1731","name":"Robson & Prescott Veterinary Surgeons, Morpeth Whorral Bank Branch","address":"Whorral Bank, Morpeth, NE61 3BN","longitude":"-1.669042","latitude":"55.17932","websiteUrl":"http://www.robsonprescott.co.uk","phone":"01670 512275","vacanciesText":"","vacanciesUrl":"","distance":"","animalTypes":[],"isGA":false,"logoUrl":"https://api.clinicsview.ivcevidensia.io/webcontent/clinics/Logo/9836"},{"id":"1734","name":"Robson Vets, Laurencekirk","address":"Laurencekirk Business Park, Laurencekirk, AB30 1EY","longitude":"-2.46021","latitude":"56.83677","websiteUrl":"http://www.robsonvets.co.uk","phone":"01561 377314","vacanciesText":"","vacanciesUrl":"","distance":"","animalTypes":[],"isGA":false,"logoUrl":"https://api.clinicsview.ivcevidensia.io/webcontent/clinics/Logo/9853"},{"id":"1738","name":"Roe Valley Veterinary Clinic","address":"70 Main Street, Limavady, BT49 0ET","longitude":"-6.95335","latitude":"55.05453","websiteUrl":"http://www.roevalleyvets.co.uk","phone":"028 777 62528","vacanciesText":"","vacanciesUrl":"","distance":"","animalTypes":[],"isGA":false,"logoUrl":"https://api.clinicsview.ivcevidensia.io/webcontent/clinics/Logo/1553"},{"id":"1741","name":"Rosehill Veterinary Clinic, Plymouth","address":"61 Molesworth Road, Stoke, PL1 5PF","longitude":"-4.160822","latitude":"50.37675","websiteUrl":"http://www.rosehillvets.co.uk","phone":"01752 562575","vacanciesText":"","vacanciesUrl":"","distance":"","animalTypes":[],"isGA":false,"logoUrl":"https://api.clinicsview.ivcevidensia.io/webcontent/clinics/Logo/9839"},{"id":"1743","name":"Rowe Veterinary Group, Bradley Stoke","address":"Bradley House, Ferndene, Bradley Stoke, BS32 9DT","longitude":"-2.558433","latitude":"51.54093","websiteUrl":"http://www.rowevetgroup.com","phone":"01454 275000","vacanciesText":"","vacanciesUrl":"","distance":"","animalTypes":[],"isGA":false,"logoUrl":"https://api.clinicsview.ivcevidensia.io/webcontent/clinics/Logo/1011"},{"id":"2029","name":"Rowe Veterinary Group, Brimsham","address":"Unit 2 Lark Rise, Brimsham, BS37 7PJ","longitude":"-2.41235","latitude":"51.55179","websiteUrl":"http://www.rowevetgroup.com","phone":"01454 312312","vacanciesText":"","vacanciesUrl":"","distance":"","animalTypes":[],"isGA":false,"logoUrl":"https://api.clinicsview.ivcevidensia.io/webcontent/clinics/Logo/9848"},{"id":"2030","name":"Rowe Veterinary Group, Winterbourne","address":"72a Bradley Avenue, Winterbourne, BS36 1HS","longitude":"-2.503751","latitude":"51.518253","websiteUrl":"http://www.rowevetgroup.com","phone":"01454 776501","vacanciesText":"","vacanciesUrl":"","distance":"","animalTypes":[],"isGA":false,"logoUrl":"https://api.clinicsview.ivcevidensia.io/webcontent/clinics/Logo/9849"},{"id":"1747","name":"Rufford Veterinary Group, Oak Villa","address":"Holmeswood Road, Rufford, L40 1TZ","longitude":"-2.85982","latitude":"53.64466","websiteUrl":"http://www.ruffordvets.com","phone":"01704 821204","vacanciesText":"","vacanciesUrl":"","distance":"","animalTypes":[],"isGA":false,"logoUrl":"https://api.clinicsview.ivcevidensia.io/webcontent/clinics/Logo/1808"},{"id":"1749","name":"Rufford Veterinary Group, Southport","address":"127 Wennington Road, Southport, PR9 7AF","longitude":"-2.970082","latitude":"53.64358","websiteUrl":"http://www.ruffordvets.com","phone":"01704 214460","vacanciesText":"","vacanciesUrl":"","distance":"","animalTypes":[],"isGA":false,"logoUrl":"https://api.clinicsview.ivcevidensia.io/webcontent/clinics/Logo/1807"},{"id":"1752","name":"Rushden Vets, Northampton","address":"163-165a Wellingborough Road, Rushden, NN10 9TA","longitude":"-0.606665","latitude":"52.292","websiteUrl":"http://www.rushdenvets.co.uk","phone":"01933 314199","vacanciesText":"","vacanciesUrl":"","distance":"","animalTypes":[],"isGA":false,"logoUrl":"https://api.clinicsview.ivcevidensia.io/webcontent/clinics/Logo/1049"},{"id":"2312","name":"Sampson Park, Byre Vets","address":"32 Papyrus Road, Werrington, PE4 5BH","longitude":"-0.28937","latitude":"52.61578","websiteUrl":"http://www.byrevets.co.uk","phone":"01733 325007","vacanciesText":"","vacanciesUrl":"","distance":"","animalTypes":[],"isGA":false,"logoUrl":"https://api.clinicsview.ivcevidensia.io/webcontent/clinics/Logo/9455"},{"id":"1755","name":"Sampson Park, Oundle","address":"92 South Road, Oundle, PE8 4BP","longitude":"-0.46926","latitude":"52.47906","websiteUrl":"http://www.oundlevets.com","phone":"01832 273521","vacanciesText":"","vacanciesUrl":"","distance":"","animalTypes":[],"isGA":false,"logoUrl":"https://api.clinicsview.ivcevidensia.io/webcontent/clinics/Logo/1813"},{"id":"1756","name":"Sampson Park, Staverton Veterinary Surgery","address":"Daventry Road, Staverton, NN11 6JH","longitude":"-1.20948","latitude":"52.24665","websiteUrl":"http://www.stavertonvets.com","phone":"01327 704919","vacanciesText":"","vacanciesUrl":"","distance":"","animalTypes":[],"isGA":false,"logoUrl":"https://api.clinicsview.ivcevidensia.io/webcontent/clinics/Logo/9798"},{"id":"1757","name":"Sampson Park, Thrapston Veterinary Surgery","address":"6 Midland Road, Thrapston, NN14 4JR","longitude":"-0.54017","latitude":"52.3934","websiteUrl":"http://www.oundlevets.com","phone":"01832 732632","vacanciesText":"","vacanciesUrl":"","distance":"","animalTypes":[],"isGA":false,"logoUrl":"https://api.clinicsview.ivcevidensia.io/webcontent/clinics/Logo/1814"},{"id":"1758","name":"Sanders Vets, Pontnewydd","address":"Maindee House, Mount Pleasant Road, NP44 1AN","longitude":"-3.028568","latitude":"51.66122","websiteUrl":"http://www.sandersvets.com","phone":"01633 483208","vacanciesText":"","vacanciesUrl":"","distance":"","animalTypes":[],"isGA":false,"logoUrl":"https://api.clinicsview.ivcevidensia.io/webcontent/clinics/Logo/1090"},{"id":"1759","name":"Saxon Vets, Woodbridge","address":"22 High Street, Wickham Market, IP13 0HE","longitude":"1.363631","latitude":"52.15109","websiteUrl":"http://www.saxonvets.com","phone":"01728 747427","vacanciesText":"","vacanciesUrl":"","distance":"","animalTypes":[],"isGA":false,"logoUrl":"https://api.clinicsview.ivcevidensia.io/webcontent/clinics/Logo/1599"},{"id":"1772","name":"Scott Vet Clinic, Birmingham","address":"926 Walsall Road, Birmingham, B42 1TG","longitude":"-1.932341","latitude":"52.54462","websiteUrl":"http://www.lydonandscottvets.co.uk","phone":"0121 357 4286","vacanciesText":"","vacanciesUrl":"","distance":"","animalTypes":[],"isGA":false,"logoUrl":"https://api.clinicsview.ivcevidensia.io/webcontent/clinics/Logo/1499"},{"id":"1774","name":"Seafield Veterinary Group, Buckie","address":"8-10 High Street, Buckie, AB56 1AQ","longitude":"-2.964419","latitude":"57.67561","websiteUrl":"http://www.seafieldvetgroup.co.uk/","phone":"01542 835207","vacanciesText":"","vacanciesUrl":"","distance":"","animalTypes":[],"isGA":false,"logoUrl":"https://api.clinicsview.ivcevidensia.io/webcontent/clinics/Logo/1269"},{"id":"1778","name":"Sheriffs Highway Vets, Gateshead","address":"94 Sheriffs Highway, Gateshead, NE9 5SD","longitude":"-1.587408","latitude":"54.940044","websiteUrl":"http://www.sheriffhighwayvets.co.uk","phone":"01914 877319","vacanciesText":"","vacanciesUrl":"","distance":"","animalTypes":[],"isGA":false,"logoUrl":"https://api.clinicsview.ivcevidensia.io/webcontent/clinics/Logo/1192"},{"id":"1780","name":"Shield Veterinary Centre","address":"Victoria Road, Bishop's Waltham, SO32 1DJ","longitude":"-1.22028","latitude":"50.95421","websiteUrl":"http://www.shieldveterinarycentre.co.uk","phone":"01489 896 734","vacanciesText":"","vacanciesUrl":"","distance":"","animalTypes":[],"isGA":false,"logoUrl":"https://api.clinicsview.ivcevidensia.io/webcontent/clinics/Logo/1773"},{"id":"1468","name":"Shield Vets, Hedge End Veterinary Centre","address":"38 Wildern Lane, Hedge End, SO30 4EH","longitude":"-1.30383","latitude":"50.91856","websiteUrl":"http://www.hedgeendveterinarycentre.co.uk","phone":"01489 782 317","vacanciesText":"","vacanciesUrl":"","distance":"","animalTypes":[],"isGA":false,"logoUrl":"https://api.clinicsview.ivcevidensia.io/webcontent/clinics/Logo/1774"},{"id":"1783","name":"Shipley and Idle Veterinary Centre, Shipley","address":"91-93 Manor Lane, Shipley, BD18 3BS","longitude":"-1.778732","latitude":"53.830105","websiteUrl":"http://www.shipleyvets.co.uk","phone":"01274 531010","vacanciesText":"","vacanciesUrl":"","distance":"","animalTypes":[],"isGA":false,"logoUrl":"https://api.clinicsview.ivcevidensia.io/webcontent/clinics/Logo/1337"},{"id":"1784","name":"Shore Veterinary Centre, Gourock","address":"7 Albert Road, Gourock, PA19 1NH","longitude":"-4.81615","latitude":"55.960407","websiteUrl":"http://www.shorevetcentre.co.uk","phone":"01475 637312","vacanciesText":"","vacanciesUrl":"","distance":"","animalTypes":[],"isGA":false,"logoUrl":"https://api.clinicsview.ivcevidensia.io/webcontent/clinics/Logo/1183"},{"id":"1785","name":"Shreen Veterinary Group, Gillingham","address":"The Square, Gillingham, SP8 4NA","longitude":"-2.279961","latitude":"51.037514","websiteUrl":"http://www.shreenvet.co.uk","phone":"01747 822428","vacanciesText":"","vacanciesUrl":"","distance":"","animalTypes":[],"isGA":false,"logoUrl":"https://api.clinicsview.ivcevidensia.io/webcontent/clinics/Logo/1430"},{"id":"1267","name":"South Wales Vets, Newport","address":"535 Malpas Road, Newport, NP20 6NA","longitude":"-3.006276","latitude":"51.61371","websiteUrl":"http://www.southwalesvets.co.uk","phone":"01633 855 825","vacanciesText":"","vacanciesUrl":"","distance":"","animalTypes":[],"isGA":false,"logoUrl":"https://api.clinicsview.ivcevidensia.io/webcontent/clinics/Logo/1278"},{"id":"1789","name":"Southern Counties Veterinary Specialists","address":"Forest Corner Farm, Hangersley, BH24 3JW","longitude":"-1.751638","latitude":"50.853844","websiteUrl":"http://www.scvetspecialists.co.uk","phone":"01425 485615","vacanciesText":"","vacanciesUrl":"","distance":"","animalTypes":[],"isGA":false,"logoUrl":"https://api.clinicsview.ivcevidensia.io/webcontent/clinics/Logo/9759"},{"id":"1790","name":"Speyside Veterinary Practice, Aberlour","address":"Rinnachat, Aberlour, AB38 9NR","longitude":"-3.24835","latitude":"57.45703","websiteUrl":"http://www.speyvet.co.uk","phone":"01340 871385","vacanciesText":"","vacanciesUrl":"","distance":"","animalTypes":[],"isGA":false,"logoUrl":"https://api.clinicsview.ivcevidensia.io/webcontent/clinics/Logo/1749"},{"id":"1791","name":"Speyside Veterinary Practice, Fochabers","address":"Balnacoul, Fochabers, IV32 7LL","longitude":"-3.13326","latitude":"57.61666","websiteUrl":"http://www.speyvet.co.uk","phone":"01343 820898","vacanciesText":"","vacanciesUrl":"","distance":"","animalTypes":[],"isGA":false,"logoUrl":"https://api.clinicsview.ivcevidensia.io/webcontent/clinics/Logo/1750"},{"id":"1275","name":"St George's Vet Group, Carmel Vets, Fallings Park","address":"204 Bushbury Road, Fallings Park, WV10 0NB","longitude":"-2.103222","latitude":"52.60148","websiteUrl":"http://www.carmelvetcentre.co.uk","phone":"01902 731 127","vacanciesText":"","vacanciesUrl":"","distance":"","animalTypes":[],"isGA":false,"logoUrl":"https://api.clinicsview.ivcevidensia.io/webcontent/clinics/Logo/10123"},{"id":"1801","name":"St George's Vets, Wolverhampton","address":"8-10 St Georgeâs Parade, St. Georges Veterinary Group, WV2 1AZ","longitude":"-2.124148","latitude":"52.58221","websiteUrl":"http://www.stgeorgesvets.co.uk","phone":"01902 425262","vacanciesText":"","vacanciesUrl":"","distance":"","animalTypes":[],"isGA":false,"logoUrl":"https://api.clinicsview.ivcevidensia.io/webcontent/clinics/Logo/1254"},{"id":"1802","name":"St Marys Veterinary Clinic, Ferndown","address":"300 Ringwood Road, Ferndown, BH22 9AS","longitude":"-1.89637","latitude":"50.796665","websiteUrl":"http://www.stmarysvets.co.uk/","phone":"01202 876 901","vacanciesText":"","vacanciesUrl":"","distance":"","animalTypes":[],"isGA":false,"logoUrl":"https://api.clinicsview.ivcevidensia.io/webcontent/clinics/Logo/1116"},{"id":"1803","name":"Stamford Veterinary Centre, Great Casterton","address":"32 Main Street, Great Casterton, PE9 4AA","longitude":"-0.52018","latitude":"52.6676","websiteUrl":"http://www.stamfordvets.co.uk","phone":"01780 763180","vacanciesText":"","vacanciesUrl":"","distance":"","animalTypes":[],"isGA":false,"logoUrl":"https://api.clinicsview.ivcevidensia.io/webcontent/clinics/Logo/1809"},{"id":"1805","name":"Steffan Veterinary Services, Lampeter","address":"5 High Street, Lampeter, SA48 7BA","longitude":"-4.079158","latitude":"52.112797","websiteUrl":"http://www.steffanvets.co.uk","phone":"01570 422322","vacanciesText":"","vacanciesUrl":"","distance":"","animalTypes":[],"isGA":false,"logoUrl":"https://api.clinicsview.ivcevidensia.io/webcontent/clinics/Logo/9912"},{"id":"1808","name":"Stocks Veterinary Centre, Upton-upon-Severn","address":"School Lane, Upton-upon-Severn, WR8 0LF","longitude":"-2.216362","latitude":"52.060234","websiteUrl":"http://www.stocksvets.co.uk","phone":"01684 592 606","vacanciesText":"","vacanciesUrl":"","distance":"","animalTypes":[],"isGA":false,"logoUrl":"https://api.clinicsview.ivcevidensia.io/webcontent/clinics/Logo/1123"},{"id":"1809","name":"Stokesley Veterinary Practice, Middlesborough","address":"Bridge View 9, East End, TS9 5DP","longitude":"-1.189061","latitude":"54.47072","websiteUrl":"http://www.stokesleyvets.co.uk","phone":"01642 710234","vacanciesText":"","vacanciesUrl":"","distance":"","animalTypes":[],"isGA":false,"logoUrl":"https://api.clinicsview.ivcevidensia.io/webcontent/clinics/Logo/1585"},{"id":"2169","name":"Stonehenge Vets, Durrington","address":"Larkhill Road, Durrington, SP4 8DP","longitude":"-1.7769","latitude":"51.19528","websiteUrl":"http://www.stonehengevet.com","phone":"01980 654404","vacanciesText":"","vacanciesUrl":"","distance":"","animalTypes":[],"isGA":false,"logoUrl":"https://api.clinicsview.ivcevidensia.io/webcontent/clinics/Logo/9322"},{"id":"2170","name":"Stonehenge Vets, Tidworth","address":"7 Station Road, Tidworth, SP9 7NN","longitude":"-1.66306","latitude":"51.23475","websiteUrl":"http://www.stonehengevet.com","phone":"01980 842200","vacanciesText":"","vacanciesUrl":"","distance":"","animalTypes":[],"isGA":false,"logoUrl":"https://api.clinicsview.ivcevidensia.io/webcontent/clinics/Logo/9323"},{"id":"1811","name":"Strathmore Veterinary Clinic, Andover","address":"6 London Road, Andover, SP10 2PH","longitude":"-1.46319","latitude":"51.20992","websiteUrl":"http://www.strathmorevets.co.uk","phone":"01264 352323","vacanciesText":"","vacanciesUrl":"","distance":"","animalTypes":[],"isGA":false,"logoUrl":"https://api.clinicsview.ivcevidensia.io/webcontent/clinics/Logo/1880"},{"id":"1812","name":"Strathspey Veterinary Centre, Aviemore","address":"2 Granish Way, Dalfaber Drive, PH22 1UQ","longitude":"-3.824325","latitude":"57.201101","websiteUrl":"http://www.strathspeyvets.co.uk","phone":"01479 872252","vacanciesText":"","vacanciesUrl":"","distance":"","animalTypes":[],"isGA":false,"logoUrl":"https://api.clinicsview.ivcevidensia.io/webcontent/clinics/Logo/1262"},{"id":"1813","name":"Strathspey Veterinary Centre, Grantown-on-Spey","address":"Forest Road, Grantown-on-Spey, PH26 3JJ","longitude":"-3.607323","latitude":"57.330432","websiteUrl":"http://www.strathspeyvets.co.uk","phone":"01479 872252","vacanciesText":"","vacanciesUrl":"","distance":"","animalTypes":[],"isGA":false,"logoUrl":"https://api.clinicsview.ivcevidensia.io/webcontent/clinics/Logo/1261"},{"id":"1815","name":"Struthers & Scott Veterinary Practice, Doune","address":"Innes Park, Station Wynd, FK16 6EH","longitude":"-4.05486","latitude":"56.19252","websiteUrl":"http://www.struthers-scott.co.uk","phone":"01786 841304","vacanciesText":"","vacanciesUrl":"","distance":"","animalTypes":[],"isGA":false,"logoUrl":"https://api.clinicsview.ivcevidensia.io/webcontent/clinics/Logo/1761"},{"id":"1515","name":"Struthers and Scott - Jackson Vets, Balfron, Stirlingshire","address":"Balfron Business Hub, Stirling, G63 0AZ","longitude":"-4.37137","latitude":"56.04582","websiteUrl":"http://www.jacksonvets.co.uk","phone":"01360 550131","vacanciesText":"","vacanciesUrl":"","distance":"","animalTypes":[],"isGA":false,"logoUrl":"https://api.clinicsview.ivcevidensia.io/webcontent/clinics/Logo/10081"},{"id":"1819","name":"Summerhill Veterinary Centre, Norfolk","address":"14 Queens Road, Fakenham, NR21 8DB","longitude":"0.85034","latitude":"52.8332","websiteUrl":"http://www.summerhillvets.co.uk","phone":"01328 855814","vacanciesText":"","vacanciesUrl":"","distance":"","animalTypes":[],"isGA":false,"logoUrl":"https://api.clinicsview.ivcevidensia.io/webcontent/clinics/Logo/1675"},{"id":"1829","name":"Sundean Veterinary Group, Forest of Dean","address":"9 Heywood Road, Cinderford, GL14 2PL","longitude":"-2.498588","latitude":"51.824673","websiteUrl":"http://www.sundeanvets.co.uk","phone":"01594 826688","vacanciesText":"","vacanciesUrl":"","distance":"","animalTypes":[],"isGA":false,"logoUrl":"https://api.clinicsview.ivcevidensia.io/webcontent/clinics/Logo/1020"},{"id":"1830","name":"Sundean Veterinary Group, Hartpury","address":"Gloucester Road, Hartpury, GL19 3BG","longitude":"-2.293073","latitude":"51.918232","websiteUrl":"http://www.sundeanvets.co.uk","phone":"01452 700086","vacanciesText":"","vacanciesUrl":"","distance":"","animalTypes":[],"isGA":false,"logoUrl":"https://api.clinicsview.ivcevidensia.io/webcontent/clinics/Logo/1019"},{"id":"1832","name":"Sundean Veterinary Group, Lydney","address":"9-11 High Street, Lydney, GL15 5DP","longitude":"-2.537464","latitude":"51.72384","websiteUrl":"http://www.sundeanvets.co.uk","phone":"01594 840404","vacanciesText":"","vacanciesUrl":"","distance":"","animalTypes":[],"isGA":false,"logoUrl":"https://api.clinicsview.ivcevidensia.io/webcontent/clinics/Logo/1094"},{"id":"1835","name":"Sussex Coast Vets, Bexhill","address":"189 De La Warr Road, Bexhill-on-Sea, TN40 2JY","longitude":"0.50096","latitude":"50.84571","websiteUrl":"http://www.sussexcoastvets.co.uk","phone":"01424 224818","vacanciesText":"","vacanciesUrl":"","distance":"","animalTypes":[],"isGA":false,"logoUrl":"https://api.clinicsview.ivcevidensia.io/webcontent/clinics/Logo/1077"},{"id":"1972","name":"Swadlincote Vets, Swadlincote Veterinary Centre, Swadlincote","address":"Unit 1, The Pipeworks Retail Park, DE11 9FQ","longitude":"-1.55604","latitude":"52.77177","websiteUrl":"http://www.swadlincotevets.co.uk","phone":"01283 213707","vacanciesText":"","vacanciesUrl":"","distance":"","animalTypes":[],"isGA":false,"logoUrl":"https://api.clinicsview.ivcevidensia.io/webcontent/clinics/Logo/1493"},{"id":"2239","name":"Swift Referrals, Wetherby","address":"Unit 706, Avenue E West, LS23 7GA","longitude":"-1.31857","latitude":"53.90763","websiteUrl":"http://www.swiftreferrals.co.uk","phone":"01937 374888","vacanciesText":"","vacanciesUrl":"","distance":"","animalTypes":[],"isGA":false,"logoUrl":"https://api.clinicsview.ivcevidensia.io/webcontent/clinics/Logo/9385"},{"id":"1839","name":"Taverham Veterinary Practice, Taverham","address":"Fir Covert Road, Taverham, NR8 6HT","longitude":"1.191723","latitude":"52.693382","websiteUrl":"http://www.taverhamvets.co.uk","phone":"01603 867330","vacanciesText":"","vacanciesUrl":"","distance":"","animalTypes":[],"isGA":false,"logoUrl":"https://api.clinicsview.ivcevidensia.io/webcontent/clinics/Logo/1592"},{"id":"1841","name":"Taylor Veterinary Practice, Cathkin","address":"Smithy House, Glasgow, G73 5QU","longitude":"-4.182721","latitude":"55.804333","websiteUrl":"http://www.taylorvets.co.uk","phone":"0141 634 3183","vacanciesText":"","vacanciesUrl":"","distance":"","animalTypes":[],"isGA":false,"logoUrl":"https://api.clinicsview.ivcevidensia.io/webcontent/clinics/Logo/1594"},{"id":"1777","name":"Taylor Veterinary Practice, Shedden","address":"19 Eaglesham Road, Clarkston, G76 7DH","longitude":"-4.274938","latitude":"55.784092","websiteUrl":"http://www.taylorvet.co.uk","phone":"0141 644 4860","vacanciesText":"","vacanciesUrl":"","distance":"","animalTypes":[],"isGA":false,"logoUrl":"https://api.clinicsview.ivcevidensia.io/webcontent/clinics/Logo/10165"},{"id":"1844","name":"Terrington Veterinary Centre","address":"24 Marshland Street, Terrington, PE34 4NE","longitude":"0.294979","latitude":"52.75697","websiteUrl":"http://www.terringtonvets.co.uk","phone":"01553 828423","vacanciesText":"","vacanciesUrl":"","distance":"","animalTypes":[],"isGA":false,"logoUrl":"https://api.clinicsview.ivcevidensia.io/webcontent/clinics/Logo/9973"},{"id":"1846","name":"Thanet Vets, Margate","address":"College Road, Margate, CT9 5TP","longitude":"1.388052","latitude":"51.380062","websiteUrl":"http://www.thanetvets.co.uk","phone":"01843 226678","vacanciesText":"","vacanciesUrl":"","distance":"","animalTypes":[],"isGA":false,"logoUrl":"https://api.clinicsview.ivcevidensia.io/webcontent/clinics/Logo/1228"},{"id":"2052","name":"The Animal House, Rugby","address":"3 Eastlands Court, St. Peters Road, CV21 3QP","longitude":"-1.24152","latitude":"52.37162","websiteUrl":"http://www.vetanimalhouse.co.uk","phone":"01788 575300","vacanciesText":"","vacanciesUrl":"","distance":"","animalTypes":[],"isGA":false,"logoUrl":"https://api.clinicsview.ivcevidensia.io/webcontent/clinics/Logo/1878"},{"id":"1851","name":"The Brook Veterinary Clinic, Enniskillen","address":"Rossorry Church Road, Enniskillen, BT74 7HB","longitude":"-7.652838","latitude":"54.346275","websiteUrl":"http://www.thebrookvet.co.uk","phone":"028 6632 3335","vacanciesText":"","vacanciesUrl":"","distance":"","animalTypes":[],"isGA":false,"logoUrl":"https://api.clinicsview.ivcevidensia.io/webcontent/clinics/Logo/1413"},{"id":"1852","name":"The Cat Clinic, Southsea","address":"95 Albert Road, Southsea, PO5 2SG","longitude":"-1.079499","latitude":"50.7871","websiteUrl":"http://www.thecatclinic.co.uk","phone":"023 9283 1000","vacanciesText":"","vacanciesUrl":"","distance":"","animalTypes":[],"isGA":false,"logoUrl":"https://api.clinicsview.ivcevidensia.io/webcontent/clinics/Logo/1031"},{"id":"1855","name":"The Glenthorne Veterinary Centre, Uttoxeter","address":"71 Derby Road, Uttoxeter, ST14 8EB","longitude":"-1.85812","latitude":"52.90244","websiteUrl":"http://www.glenthornevets.co.uk/","phone":"01889 562164","vacanciesText":"","vacanciesUrl":"","distance":"","animalTypes":[],"isGA":false,"logoUrl":"https://api.clinicsview.ivcevidensia.io/webcontent/clinics/Logo/1771"},{"id":"1861","name":"The Laurels Veterinary Centre, Ewyas","address":"Pontrilas Road, Ewyas Harold, HR2 0EL","longitude":"-2.88341","latitude":"51.94387","websiteUrl":"http://www.laurelsvets.co.uk","phone":"01981 240333","vacanciesText":"","vacanciesUrl":"","distance":"","animalTypes":[],"isGA":false,"logoUrl":"https://api.clinicsview.ivcevidensia.io/webcontent/clinics/Logo/1826"},{"id":"1862","name":"The Laurels Veterinary Centre, Hereford","address":"4 Ryeland Street, Hereford, HR4 0LA","longitude":"-2.72803","latitude":"52.05589","websiteUrl":"http://www.laurelsvets.co.uk","phone":"01432 354433","vacanciesText":"","vacanciesUrl":"","distance":"","animalTypes":[],"isGA":false,"logoUrl":"https://api.clinicsview.ivcevidensia.io/webcontent/clinics/Logo/1825"},{"id":"2324","name":"The Oak Veterinary Group, Clarbeston Road","address":"Clarbeston Road, Haverfordwest, SA63 4UH","longitude":"-4.87767","latitude":"51.84491","websiteUrl":"http://www.oakvetgroup.co.uk","phone":"01437 731327","vacanciesText":"","vacanciesUrl":"","distance":"","animalTypes":[],"isGA":false,"logoUrl":"https://api.clinicsview.ivcevidensia.io/webcontent/clinics/Logo/9466"},{"id":"1872","name":"The Veterinary Clinic, New Hall - Sutton Coldfield","address":"215A Walmley Road, Sutton Coldfield, B76 2PP","longitude":"-1.797785","latitude":"52.5495","websiteUrl":"http://www.thevetclinic.co.uk","phone":"0121 313 1919","vacanciesText":"","vacanciesUrl":"","distance":"","animalTypes":[],"isGA":false,"logoUrl":"https://api.clinicsview.ivcevidensia.io/webcontent/clinics/Logo/9754"},{"id":"1877","name":"The Vets' Place","address":"Chestnut House, Upcast Lane, SK9 6EH","longitude":"-2.254709","latitude":"53.312683","websiteUrl":"http://www.thevetsplace.com","phone":"01625 585500","vacanciesText":"","vacanciesUrl":"","distance":"","animalTypes":[],"isGA":false,"logoUrl":"https://api.clinicsview.ivcevidensia.io/webcontent/clinics/Logo/1731"},{"id":"1878","name":"Three Rivers Veterinary Group, Beccles","address":"London Road, Beccles, NR34 9YU","longitude":"1.561214","latitude":"52.443707","websiteUrl":"http://www.threeriversvetgroup.co.uk","phone":"01502 712169","vacanciesText":"","vacanciesUrl":"","distance":"","animalTypes":[],"isGA":false,"logoUrl":"https://api.clinicsview.ivcevidensia.io/webcontent/clinics/Logo/1062"},{"id":"1879","name":"Three Rivers Veterinary Group, Kessingland","address":"81 High Street, Kessingland, NR33 7QQ","longitude":"1.708338","latitude":"52.420082","websiteUrl":"http://www.threeriversvetgroup.co.uk","phone":"01502 741988","vacanciesText":"","vacanciesUrl":"","distance":"","animalTypes":[],"isGA":false,"logoUrl":"https://api.clinicsview.ivcevidensia.io/webcontent/clinics/Logo/1065"},{"id":"1880","name":"Three Rivers Veterinary Group, Loddon","address":"19 Beccles Road, Loddon, NR14 6JQ","longitude":"1.484177","latitude":"52.531834","websiteUrl":"http://www.threeriversvetgroup.co.uk","phone":"01508 520247","vacanciesText":"","vacanciesUrl":"","distance":"","animalTypes":[],"isGA":false,"logoUrl":"https://api.clinicsview.ivcevidensia.io/webcontent/clinics/Logo/1063"},{"id":"1882","name":"Three Rivers Veterinary Group, Norwich","address":"70 Hall Road, Norwich, NR1 3HP","longitude":"1.297387","latitude":"52.618465","websiteUrl":"http://www.threeriversvetgroup.co.uk","phone":"01603 765897","vacanciesText":"","vacanciesUrl":"","distance":"","animalTypes":[],"isGA":false,"logoUrl":"https://api.clinicsview.ivcevidensia.io/webcontent/clinics/Logo/1066"},{"id":"1883","name":"Three Rivers Veterinary Group, Poringland","address":"113 The Street, Poringland, NR14 7RP","longitude":"1.348634","latitude":"52.566795","websiteUrl":"http://www.threeriversvetgroup.co.uk","phone":"01508 492834","vacanciesText":"","vacanciesUrl":"","distance":"","animalTypes":[],"isGA":false,"logoUrl":"https://api.clinicsview.ivcevidensia.io/webcontent/clinics/Logo/1064"},{"id":"1884","name":"Thurston Veterinary Centre, Thurston","address":"58 Barton Road, Thurston, IP31 3PD","longitude":"0.805678","latitude":"52.25395","websiteUrl":"http://www.haughleyvets.co.uk","phone":"01359 232200","vacanciesText":"","vacanciesUrl":"","distance":"","animalTypes":[],"isGA":false,"logoUrl":"https://api.clinicsview.ivcevidensia.io/webcontent/clinics/Logo/1402"},{"id":"1885","name":"Tower Veterinary Centre, Perth","address":"West Huntingtower, Perth, PH1 3NR","longitude":"-3.499972","latitude":"56.40801","websiteUrl":"http://www.towervetcentre.co.uk","phone":"01738 583083","vacanciesText":"","vacanciesUrl":"","distance":"","animalTypes":[],"isGA":false,"logoUrl":"https://api.clinicsview.ivcevidensia.io/webcontent/clinics/Logo/1265"},{"id":"1886","name":"Towerwood Vets, Cookridge","address":"27 Tinshill Road, Leeds, LS16 7DR","longitude":"-1.617485","latitude":"53.856644","websiteUrl":"http://www.towerwoodvets.co.uk","phone":"0113 267 8419","vacanciesText":"","vacanciesUrl":"","distance":"","animalTypes":[],"isGA":false,"logoUrl":"https://api.clinicsview.ivcevidensia.io/webcontent/clinics/Logo/1712"},{"id":"1887","name":"Towerwood Vets, Greengates","address":"76 New Line, Bradford, BD10 9AP","longitude":"-1.71374","latitude":"53.831593","websiteUrl":"http://www.towerwoodvets.co.uk","phone":"01274 610627","vacanciesText":"","vacanciesUrl":"","distance":"","animalTypes":[],"isGA":false,"logoUrl":"https://api.clinicsview.ivcevidensia.io/webcontent/clinics/Logo/1713"},{"id":"1888","name":"Town and Country Veterinary Group, Blackburn","address":"40 King Street, Blackburn, BB2 2DH","longitude":"-2.486278","latitude":"53.746384","websiteUrl":"http://www.townandcountryveterinarygroup.co.uk","phone":"01254 681455","vacanciesText":"","vacanciesUrl":"","distance":"","animalTypes":[],"isGA":false,"logoUrl":"https://api.clinicsview.ivcevidensia.io/webcontent/clinics/Logo/1175"},{"id":"1889","name":"Town and Country Veterinary Group, Clayton-Le-Moors","address":"69 Whalley Road, Clayton-le-Moors, BB5 5ED","longitude":"-2.379207","latitude":"53.76966","websiteUrl":"http://www.townandcountryveterinarygroup.co.uk","phone":"01254 233723","vacanciesText":"","vacanciesUrl":"","distance":"","animalTypes":[],"isGA":false,"logoUrl":"https://api.clinicsview.ivcevidensia.io/webcontent/clinics/Logo/1176"},{"id":"1891","name":"Trinity Vet Centre, Maidstone","address":"Unit 6, Hermitage Walk, ME16 9NZ","longitude":"0.48479","latitude":"51.27276","websiteUrl":"http://www.trinityvetcentre.com","phone":"01622 726730","vacanciesText":"","vacanciesUrl":"","distance":"","animalTypes":[],"isGA":false,"logoUrl":"https://api.clinicsview.ivcevidensia.io/webcontent/clinics/Logo/1676"},{"id":"1892","name":"Twickenham Veterinary Surgery, Twickenham","address":"58 Hampton Road, Twickenham, TW2 5QB","longitude":"-0.344573","latitude":"51.441967","websiteUrl":"http://www.twickenhamvets.com","phone":"020 8898 0528","vacanciesText":"","vacanciesUrl":"","distance":"","animalTypes":[],"isGA":false,"logoUrl":"https://api.clinicsview.ivcevidensia.io/webcontent/clinics/Logo/1659"},{"id":"1895","name":"Unicorn Vets, Fairfield Surgery","address":"Winchester Road, Fair Oak, SO50 7GW","longitude":"-1.298068","latitude":"50.965874","websiteUrl":"http://www.unicornvets.co.uk","phone":"023 8060 1900","vacanciesText":"","vacanciesUrl":"","distance":"","animalTypes":[],"isGA":false,"logoUrl":"https://api.clinicsview.ivcevidensia.io/webcontent/clinics/Logo/1033"},{"id":"1896","name":"Unicorn Vets, Park Surgery","address":"84 Burgess Road, Bassett, SO16 7PP","longitude":"-1.402439","latitude":"50.936806","websiteUrl":"http://www.unicornvets.co.uk","phone":"023 8034 3434","vacanciesText":"","vacanciesUrl":"","distance":"","animalTypes":[],"isGA":false,"logoUrl":"https://api.clinicsview.ivcevidensia.io/webcontent/clinics/Logo/1032"},{"id":"1897","name":"Usk Veterinary Centre","address":"Usk Veterinary Centre, Porth-y-Carne Street, NP15 1RZ","longitude":"-2.90497","latitude":"51.7048","websiteUrl":"http://www.uskvets.co.uk","phone":"01291 672637","vacanciesText":"","vacanciesUrl":"","distance":"","animalTypes":[],"isGA":false,"logoUrl":"https://api.clinicsview.ivcevidensia.io/webcontent/clinics/Logo/1403"},{"id":"1162","name":"Vale Vets Clevedon","address":"20-24 Alexandra Road, Clevedon, BS21 7QH","longitude":"-2.85903","latitude":"51.44198","websiteUrl":"http://www.portisheadvets.co.uk","phone":"01275 343457","vacanciesText":"","vacanciesUrl":"","distance":"","animalTypes":[],"isGA":false,"logoUrl":"https://api.clinicsview.ivcevidensia.io/webcontent/clinics/Logo/1767"},{"id":"1901","name":"Vale Vets, Dursley","address":"The Animal Hospital, Stinchcombe, GL11 6AJ","longitude":"-2.383247","latitude":"51.69089","websiteUrl":"http://www.valevets.co.uk","phone":"01453 542092","vacanciesText":"","vacanciesUrl":"","distance":"","animalTypes":[],"isGA":false,"logoUrl":"https://api.clinicsview.ivcevidensia.io/webcontent/clinics/Logo/9763"},{"id":"1956","name":"Victoria Veterinary Practice, Aberdare","address":"Unit 6, Aberaman Industrial Estate, CF44 6DA","longitude":"-3.418311","latitude":"51.698246","websiteUrl":"http://www.victoriaveterinarypractice.co.uk","phone":"01685 387262","vacanciesText":"","vacanciesUrl":"","distance":"","animalTypes":[],"isGA":false,"logoUrl":"https://api.clinicsview.ivcevidensia.io/webcontent/clinics/Logo/1393"},{"id":"1957","name":"Victoria Veterinary Practice, Dowlais","address":"Seymour Berry Centre, Merthyr Tydfil, CF48 3RL","longitude":"-3.356465","latitude":"51.762047","websiteUrl":"http://www.victoriaveterinarypractice.co.uk","phone":"01685 387262","vacanciesText":"","vacanciesUrl":"","distance":"","animalTypes":[],"isGA":false,"logoUrl":"https://api.clinicsview.ivcevidensia.io/webcontent/clinics/Logo/1392"},{"id":"2313","name":"Village Vets & Meadowbank, Liverpool Road","address":"Liverpool Road, Buckley, CH7 3LX","longitude":"-3.069916","latitude":"53.185474","websiteUrl":"http://www.villagevetcentre.co.uk","phone":"01244 548 866","vacanciesText":"","vacanciesUrl":"","distance":"","animalTypes":[],"isGA":false,"logoUrl":"https://api.clinicsview.ivcevidensia.io/webcontent/clinics/Logo/9456"},{"id":"1962","name":"Vine Tree Vets, Ross-on-Wye","address":"Walford Road, Ross-on-Wye, HR9 5RS","longitude":"-2.590109","latitude":"51.900803","websiteUrl":"http://www.vinetreevets.co.uk","phone":"01989 564687","vacanciesText":"","vacanciesUrl":"","distance":"","animalTypes":[],"isGA":false,"logoUrl":"https://api.clinicsview.ivcevidensia.io/webcontent/clinics/Logo/10095"},{"id":"1963","name":"Virginia Water Veterinary Clinic, Virginia Water","address":"447 Stroude Road, Virginia Water, GU25 4BU","longitude":"-0.558228","latitude":"51.407047","websiteUrl":"http://www.virginiawatervets.co.uk","phone":"01344 841801","vacanciesText":"","vacanciesUrl":"","distance":"","animalTypes":[],"isGA":false,"logoUrl":"https://api.clinicsview.ivcevidensia.io/webcontent/clinics/Logo/1629"},{"id":"1965","name":"Wards Veterinary Centre, Elgin","address":"New Elgin Road, Elgin, IV30 6BA","longitude":"-3.307551","latitude":"57.64218","websiteUrl":"http://www.wardsvets.co.uk","phone":"01343 544811","vacanciesText":"","vacanciesUrl":"","distance":"","animalTypes":[],"isGA":false,"logoUrl":"https://api.clinicsview.ivcevidensia.io/webcontent/clinics/Logo/1199"},{"id":"1975","name":"Waverley Vets, Godalming Veterinary Surgery","address":"The Old Auction Mart, Station Approach, GU7 1EU","longitude":"-0.6175","latitude":"51.18674","websiteUrl":"http://www.waverleyvets.co.uk","phone":"01483 422644","vacanciesText":"","vacanciesUrl":"","distance":"","animalTypes":[],"isGA":false,"logoUrl":"https://api.clinicsview.ivcevidensia.io/webcontent/clinics/Logo/1790"},{"id":"1979","name":"Well House Veterinary Clinic, Crowborough","address":"Well House, Crowborough Hill, TN6 2SE","longitude":"0.170796","latitude":"51.053185","websiteUrl":"http://www.well-house.co.uk","phone":"01892 653088","vacanciesText":"","vacanciesUrl":"","distance":"","animalTypes":[],"isGA":false,"logoUrl":"https://api.clinicsview.ivcevidensia.io/webcontent/clinics/Logo/1148"},{"id":"1980","name":"Well House Veterinary Clinic, Tunbridge Wells","address":"Summerfield Lodge, 24 Eridge Road, TN4 8HJ","longitude":"0.251656","latitude":"51.123943","websiteUrl":"http://www.well-housevets.co.uk","phone":"01892 515885","vacanciesText":"","vacanciesUrl":"","distance":"","animalTypes":[],"isGA":false,"logoUrl":"https://api.clinicsview.ivcevidensia.io/webcontent/clinics/Logo/1085"},{"id":"1981","name":"Wellpets Kent, Minster-on-Sea","address":"6A The Broadway, Minster-on-Sea, ME12 2RN","longitude":"0.798606","latitude":"51.420475","websiteUrl":"http://www.wellpetskent.co.uk","phone":"01795 876800","vacanciesText":"","vacanciesUrl":"","distance":"","animalTypes":[],"isGA":false,"logoUrl":"https://api.clinicsview.ivcevidensia.io/webcontent/clinics/Logo/1207"},{"id":"1982","name":"Wellpets Kent, Sheerness","address":"211 High Street, Sheerness, ME12 1UR","longitude":"0.765852","latitude":"51.435947","websiteUrl":"http://www.wellpetskent.co.uk","phone":"01795 662243","vacanciesText":"","vacanciesUrl":"","distance":"","animalTypes":[],"isGA":false,"logoUrl":"https://api.clinicsview.ivcevidensia.io/webcontent/clinics/Logo/1206"},{"id":"1983","name":"Wellpets Kent, Sittingbourne","address":"3-5 Periwinkle Court, Church Street, ME10 2JZ","longitude":"0.730411","latitude":"51.346428","websiteUrl":"http://www.wellpetskent.co.uk","phone":"01795 424600","vacanciesText":"","vacanciesUrl":"","distance":"","animalTypes":[],"isGA":false,"logoUrl":"https://api.clinicsview.ivcevidensia.io/webcontent/clinics/Logo/1205"},{"id":"1984","name":"Wellpets Vets, Fairwater","address":"Fairwater Square, Cwmbran, NP44 4TA","longitude":"-3.04607","latitude":"51.64483","websiteUrl":"http://www.wellpetsvets.uk","phone":"01633 869300","vacanciesText":"","vacanciesUrl":"","distance":"","animalTypes":[],"isGA":false,"logoUrl":"https://api.clinicsview.ivcevidensia.io/webcontent/clinics/Logo/9989"},{"id":"1987","name":"Wellpets West Country, Worle","address":"93 Ebdon Road, Worle, BS22 6US","longitude":"-2.923729","latitude":"51.36679","websiteUrl":"http://www.wellpets.co.uk","phone":"01934 510315","vacanciesText":"","vacanciesUrl":"","distance":"","animalTypes":[],"isGA":false,"logoUrl":"https://api.clinicsview.ivcevidensia.io/webcontent/clinics/Logo/1210"},{"id":"1988","name":"Wellpets West Country, Yeovil","address":"37 Grass Royal, Yeovil, BA21 4JW","longitude":"-2.622902","latitude":"50.947235","websiteUrl":"http://www.wellpets.co.uk","phone":"01935 410414","vacanciesText":"","vacanciesUrl":"","distance":"","animalTypes":[],"isGA":false,"logoUrl":"https://api.clinicsview.ivcevidensia.io/webcontent/clinics/Logo/1211"},{"id":"1990","name":"Wendover Heights Veterinary Centre, Halton","address":"1 Tring Road, Halton, HP22 5PN","longitude":"-0.73232","latitude":"51.77106","websiteUrl":"http://www.whvc.co.uk","phone":"01296 623439","vacanciesText":"","vacanciesUrl":"","distance":"","animalTypes":[],"isGA":false,"logoUrl":"https://api.clinicsview.ivcevidensia.io/webcontent/clinics/Logo/1984"},{"id":"1992","name":"Westmorland Veterinary Group, Kendal","address":"Riverside Business Park, Natland Road, LA9 7SX","longitude":"-2.74156","latitude":"54.31309","websiteUrl":"http://www.westmorland-vets.co.uk","phone":"01539 722692","vacanciesText":"","vacanciesUrl":"","distance":"","animalTypes":[],"isGA":false,"logoUrl":"https://api.clinicsview.ivcevidensia.io/webcontent/clinics/Logo/1873"},{"id":"1993","name":"Westmorland Veterinary Group, Kirkby Lonsdale","address":"Tithe Barn, Kendal Road, LA6 2HH","longitude":"-2.60089","latitude":"54.20034","websiteUrl":"http://www.westmorland-vets.co.uk","phone":"015242 71221","vacanciesText":"","vacanciesUrl":"","distance":"","animalTypes":[],"isGA":false,"logoUrl":"https://api.clinicsview.ivcevidensia.io/webcontent/clinics/Logo/1874"},{"id":"1994","name":"Westwood Vets, Boston Spa","address":"Westwood House, 106 High Street, LS23 6DR","longitude":"-1.351149","latitude":"53.906258","websiteUrl":"http://www.westwoodvets.co.uk","phone":"01937 842210","vacanciesText":"","vacanciesUrl":"","distance":"","animalTypes":[],"isGA":false,"logoUrl":"https://api.clinicsview.ivcevidensia.io/webcontent/clinics/Logo/1131"},{"id":"1996","name":"Wheelhouse Veterinary Centre, Amersham","address":"1 Woodside Close, Amersham, HP6 5EG","longitude":"-0.60502","latitude":"51.67621","websiteUrl":"http://www.wheelhousevets.co.uk","phone":"01494 725320","vacanciesText":"","vacanciesUrl":"","distance":"","animalTypes":[],"isGA":false,"logoUrl":"https://api.clinicsview.ivcevidensia.io/webcontent/clinics/Logo/1882"},{"id":"1998","name":"Wheelhouse Veterinary Centre, Chesham","address":"Amersham Rd, Chesham, HP5 1NQ","longitude":"-0.611","latitude":"51.70009","websiteUrl":"http://www.wheelhousevets.co.uk","phone":"01494 782001","vacanciesText":"","vacanciesUrl":"","distance":"","animalTypes":[],"isGA":false,"logoUrl":"https://api.clinicsview.ivcevidensia.io/webcontent/clinics/Logo/1883"},{"id":"1999","name":"Wherry Veterinary Group, Bungay","address":"Hillside Road East, Bungay, NR35 1RX","longitude":"1.448166","latitude":"52.44965","websiteUrl":"http://www.wherryvets.co.uk","phone":"01986 892771","vacanciesText":"","vacanciesUrl":"","distance":"","animalTypes":[],"isGA":false,"logoUrl":"https://api.clinicsview.ivcevidensia.io/webcontent/clinics/Logo/1582"},{"id":"2001","name":"White Cross Vets, Alvaston","address":"1238 London Road, Alvaston, DE24 8QP","longitude":"-1.429999","latitude":"52.897144","websiteUrl":"http://www.whitecrossvets.co.uk","phone":"01332 756 060","vacanciesText":"","vacanciesUrl":"","distance":"","animalTypes":[],"isGA":false,"logoUrl":"https://api.clinicsview.ivcevidensia.io/webcontent/clinics/Logo/1703"},{"id":"1206","name":"White Cross Vets, Balby","address":"83 - 85 Springwell Lane, Balby, DN4 9AD","longitude":"-1.158376","latitude":"53.500412","websiteUrl":"http://www.whitecrossvets.co.uk","phone":"01302 852323","vacanciesText":"","vacanciesUrl":"","distance":"","animalTypes":[],"isGA":false,"logoUrl":"https://api.clinicsview.ivcevidensia.io/webcontent/clinics/Logo/1141"},{"id":"2002","name":"White Cross Vets, Bloxwich","address":"110 Leamore Lane, Bloxwich, WS2 7BU","longitude":"-2.000843","latitude":"52.60627","websiteUrl":"http://www.whitecrossvets.co.uk","phone":"01922 667 010","vacanciesText":"","vacanciesUrl":"","distance":"","animalTypes":[],"isGA":false,"logoUrl":"https://api.clinicsview.ivcevidensia.io/webcontent/clinics/Logo/1698"},{"id":"2003","name":"White Cross Vets, Coulby","address":"The Parkway Centre, Coulby Newham, TS8 0TJ","longitude":"-1.216136","latitude":"54.52426","websiteUrl":"http://www.whitecrossvets.co.uk","phone":"01642 576 333","vacanciesText":"","vacanciesUrl":"","distance":"","animalTypes":[],"isGA":false,"logoUrl":"https://api.clinicsview.ivcevidensia.io/webcontent/clinics/Logo/1694"},{"id":"2004","name":"White Cross Vets, Eccleshill","address":"266 Harrogate road, Eccleshill, BD2 3RH","longitude":"-1.72213","latitude":"53.81505","websiteUrl":"http://www.whitecrossvets.co.uk","phone":"01274 065 222","vacanciesText":"","vacanciesUrl":"","distance":"","animalTypes":[],"isGA":false,"logoUrl":"https://api.clinicsview.ivcevidensia.io/webcontent/clinics/Logo/1687"},{"id":"2005","name":"White Cross Vets, Gateacre","address":"Unit 2, Gateacre Local Centre, L25 1PD","longitude":"-2.87557","latitude":"53.39427","websiteUrl":"http://www.whitecrossvets.co.uk","phone":"0151 556 9444","vacanciesText":"","vacanciesUrl":"","distance":"","animalTypes":[],"isGA":false,"logoUrl":"https://api.clinicsview.ivcevidensia.io/webcontent/clinics/Logo/1690"},{"id":"2006","name":"White Cross Vets, Guiseley","address":"8 Bradford Road, Guiseley, LS20 8NH","longitude":"-1.725029","latitude":"53.875668","websiteUrl":"http://www.whitecrossvets.co.uk","phone":"01943 873 147","vacanciesText":"","vacanciesUrl":"","distance":"","animalTypes":[],"isGA":false,"logoUrl":"https://api.clinicsview.ivcevidensia.io/webcontent/clinics/Logo/1685"},{"id":"2007","name":"White Cross Vets, Handsworth","address":"155-159 Retford Road, Handsworth, S13 9LD","longitude":"-1.371515","latitude":"53.3708","websiteUrl":"http://www.whitecrossvets.co.uk","phone":"0114 478 6999","vacanciesText":"","vacanciesUrl":"","distance":"","animalTypes":[],"isGA":false,"logoUrl":"https://api.clinicsview.ivcevidensia.io/webcontent/clinics/Logo/1705"},{"id":"2008","name":"White Cross Vets, Kings Heath","address":"283 Alcester Road, Kings Heath, B14 6EB","longitude":"-1.89151","latitude":"52.42137","websiteUrl":"http://www.whitecrossvets.co.uk","phone":"0121 444 4388","vacanciesText":"","vacanciesUrl":"","distance":"","animalTypes":[],"isGA":false,"logoUrl":"https://api.clinicsview.ivcevidensia.io/webcontent/clinics/Logo/1686"},{"id":"2009","name":"White Cross Vets, Newton Hyde","address":"Talbot Road, Hyde, SK14 4XG","longitude":"-2.039339","latitude":"53.44886","websiteUrl":"http://www.whitecrossvets.co.uk","phone":"0161 667 0333","vacanciesText":"","vacanciesUrl":"","distance":"","animalTypes":[],"isGA":false,"logoUrl":"https://api.clinicsview.ivcevidensia.io/webcontent/clinics/Logo/1692"},{"id":"2010","name":"White Cross Vets, Northampton","address":"The Boulevard, Weston Favell Shopping Centre, NN3 8JP","longitude":"-0.837344","latitude":"52.256428","websiteUrl":"http://www.whitecrossvets.co.uk","phone":"01604 400 130","vacanciesText":"","vacanciesUrl":"","distance":"","animalTypes":[],"isGA":false,"logoUrl":"https://api.clinicsview.ivcevidensia.io/webcontent/clinics/Logo/1695"},{"id":"2011","name":"White Cross Vets, Redcar","address":"Unit 3 West Dyke Road Retail Park, Redcar, TS10 2AA","longitude":"-1.067853","latitude":"54.615303","websiteUrl":"http://www.whitecrossvets.co.uk/","phone":"01642 486 338","vacanciesText":"","vacanciesUrl":"","distance":"","animalTypes":[],"isGA":false,"logoUrl":"https://api.clinicsview.ivcevidensia.io/webcontent/clinics/Logo/1696"},{"id":"2012","name":"White Cross Vets, Roundhay","address":"31 Street Lane, Roundhay, LS8 1BW","longitude":"-1.505649","latitude":"53.842663","websiteUrl":"http://www.whitecrossvets.co.uk","phone":"0113 887 7611","vacanciesText":"","vacanciesUrl":"","distance":"","animalTypes":[],"isGA":false,"logoUrl":"https://api.clinicsview.ivcevidensia.io/webcontent/clinics/Logo/1689"},{"id":"2013","name":"White Cross Vets, Sale","address":"147 Cross Street, Sale, M33 7JW","longitude":"-2.32053","latitude":"53.42974","websiteUrl":"http://www.whitecrossvets.co.uk","phone":"0161 470 9999","vacanciesText":"","vacanciesUrl":"","distance":"","animalTypes":[],"isGA":false,"logoUrl":"https://api.clinicsview.ivcevidensia.io/webcontent/clinics/Logo/1847"},{"id":"2014","name":"White Cross Vets, St Helens","address":"2-3 Millfields Court, Millfield Road, WA10 5RG","longitude":"-2.771417","latitude":"53.449886","websiteUrl":"http://www.whitecrossvets.co.uk","phone":"01744 410 777","vacanciesText":"","vacanciesUrl":"","distance":"","animalTypes":[],"isGA":false,"logoUrl":"https://api.clinicsview.ivcevidensia.io/webcontent/clinics/Logo/1697"},{"id":"2015","name":"White Cross Vets, Tividale","address":"194 Regent Road, Tividale, B69 1SB","longitude":"-2.0589","latitude":"52.504147","websiteUrl":"http://www.whitecrossvets.co.uk","phone":"01384 884 141","vacanciesText":"","vacanciesUrl":"","distance":"","animalTypes":[],"isGA":false,"logoUrl":"https://api.clinicsview.ivcevidensia.io/webcontent/clinics/Logo/1688"},{"id":"2016","name":"White Cross Vets, Walkden","address":"Mayfield Avenue, Walkden, M28 3JF","longitude":"-2.400217","latitude":"53.523464","websiteUrl":"http://www.whitecrossvets.co.uk","phone":"0161 799 5557","vacanciesText":"","vacanciesUrl":"","distance":"","animalTypes":[],"isGA":false,"logoUrl":"https://api.clinicsview.ivcevidensia.io/webcontent/clinics/Logo/1693"},{"id":"2017","name":"White Cross Vets, West Derby","address":"200-202 Muirhead Avenue, West Derby, L13 0BA","longitude":"-2.919873","latitude":"53.43458","websiteUrl":"http://www.whitecrossvets.co.uk","phone":"0151 270 1759","vacanciesText":"","vacanciesUrl":"","distance":"","animalTypes":[],"isGA":false,"logoUrl":"https://api.clinicsview.ivcevidensia.io/webcontent/clinics/Logo/1691"},{"id":"2018","name":"White Cross Vets, Widnes","address":"Fir Park, Queensbury Way, WA8 9BD","longitude":"-2.74784","latitude":"53.380646","websiteUrl":"http://www.whitecrossvets.co.uk","phone":"0151 305 7333","vacanciesText":"","vacanciesUrl":"","distance":"","animalTypes":[],"isGA":false,"logoUrl":"https://api.clinicsview.ivcevidensia.io/webcontent/clinics/Logo/1699"},{"id":"2019","name":"White Cross Vets, Wolstanton","address":"High Street, Wolstanton, ST5 0EW","longitude":"-2.217008","latitude":"53.031685","websiteUrl":"http://www.whitecrossvets.co.uk","phone":"01782 898 030","vacanciesText":"","vacanciesUrl":"","distance":"","animalTypes":[],"isGA":false,"logoUrl":"https://api.clinicsview.ivcevidensia.io/webcontent/clinics/Logo/1700"},{"id":"2020","name":"White Cross Vets, Wolverhampton","address":"333A Penn Road, Wolverhampton, WV4 5QF","longitude":"-2.33082","latitude":"52.12389","websiteUrl":"http://www.whitecrossvets.co.uk","phone":"01902 599 880","vacanciesText":"","vacanciesUrl":"","distance":"","animalTypes":[],"isGA":false,"logoUrl":"https://api.clinicsview.ivcevidensia.io/webcontent/clinics/Logo/1701"},{"id":"2025","name":"Willow Veterinary Centre, Newport Pagnell","address":"2 Willen Road, Newport Pagnell, MK16 0DF","longitude":"-0.722141","latitude":"52.080974","websiteUrl":"http://www.willowvet.co.uk","phone":"01908 610982","vacanciesText":"","vacanciesUrl":"","distance":"","animalTypes":[],"isGA":false,"logoUrl":"https://api.clinicsview.ivcevidensia.io/webcontent/clinics/Logo/1457"},{"id":"2026","name":"Willow Veterinary Centre, Olney","address":"5 High Street, Olney, MK46 4EB","longitude":"-0.701951","latitude":"52.154651","websiteUrl":"http://www.willowvet.co.uk","phone":"01234 711473","vacanciesText":"","vacanciesUrl":"","distance":"","animalTypes":[],"isGA":false,"logoUrl":"https://api.clinicsview.ivcevidensia.io/webcontent/clinics/Logo/1458"},{"id":"2027","name":"Wilton House Veterinary Clinic, Guisborough","address":"Wilton Lane, Guisborough, TS14 6JA","longitude":"-1.055887","latitude":"54.54086","websiteUrl":"http://www.wiltonhousevets.co.uk/","phone":"01287 637470","vacanciesText":"","vacanciesUrl":"","distance":"","animalTypes":[],"isGA":false,"logoUrl":"https://api.clinicsview.ivcevidensia.io/webcontent/clinics/Logo/1427"},{"id":"1973","name":"Wirral Vets, Upton Veterinary Clinic","address":"342 Upton Road, Upton, CH43 9RW","longitude":"-3.082392","latitude":"53.388203","websiteUrl":"http://www.wirralvet.co.uk","phone":"0151 677 2411","vacanciesText":"","vacanciesUrl":"","distance":"","animalTypes":[],"isGA":false,"logoUrl":"https://api.clinicsview.ivcevidensia.io/webcontent/clinics/Logo/1497"},{"id":"2035","name":"Wood Street Veterinary Group, Wood Street Vet Hospital","address":"74 Wood Street, Barnet, EN5 4BW","longitude":"-0.204856","latitude":"51.65331","websiteUrl":"http://www.woodstreetvethospital.co.uk","phone":"020 8449 0074","vacanciesText":"","vacanciesUrl":"","distance":"","animalTypes":[],"isGA":false,"logoUrl":"https://api.clinicsview.ivcevidensia.io/webcontent/clinics/Logo/1753"},{"id":"2038","name":"Woodland Veterinary Centre, Midhurst","address":"Grange Road, Midhurst, GU29 9LT","longitude":"-0.739613","latitude":"50.984932","websiteUrl":"http://www.woodlandvetcentre.co.uk","phone":"01730 814321","vacanciesText":"","vacanciesUrl":"","distance":"","animalTypes":[],"isGA":false,"logoUrl":"https://api.clinicsview.ivcevidensia.io/webcontent/clinics/Logo/1431"},{"id":"2041","name":"Woodside Veterinary Group, Torphins","address":"Woodside Road, Torphins, AB31 4TR","longitude":"-2.61659","latitude":"57.10474","websiteUrl":"http://www.woodsideveterinarygroup.co.uk/","phone":"01339 882 556","vacanciesText":"","vacanciesUrl":"","distance":"","animalTypes":[],"isGA":false,"logoUrl":"https://api.clinicsview.ivcevidensia.io/webcontent/clinics/Logo/1836"},{"id":"2072","name":"Wright & Morten Veterinary Group, Holly Tree","address":"The Barn, Holly Tree Farm, SK11 9DT","longitude":"-2.29968","latitude":"53.23224","websiteUrl":"http://www.wmvets.co.uk","phone":"01260 280800","vacanciesText":"","vacanciesUrl":"","distance":"","animalTypes":[],"isGA":false,"logoUrl":"https://api.clinicsview.ivcevidensia.io/webcontent/clinics/Logo/2028"},{"id":"2068","name":"Wright & Morten Veterinary Group, Macclesfield","address":"107 Heather Close, Macclesfield, SK11 0LR","longitude":"-2.12896","latitude":"53.23982","websiteUrl":"http://www.wmvets.co.uk/","phone":"01625 501500","vacanciesText":"","vacanciesUrl":"","distance":"","animalTypes":[],"isGA":false,"logoUrl":"https://api.clinicsview.ivcevidensia.io/webcontent/clinics/Logo/2024"},{"id":"2071","name":"Wright & Morten Veterinary Group, Somerford Park Clinic","address":"Holmes Chapel Rd, Congleton, CW12 4SW","longitude":"-2.28694","latitude":"53.17989","websiteUrl":"http://www.wmvets.co.uk","phone":"01477 571000Â ","vacanciesText":"","vacanciesUrl":"","distance":"","animalTypes":[],"isGA":false,"logoUrl":"https://api.clinicsview.ivcevidensia.io/webcontent/clinics/Logo/2027"},{"id":"1310","name":"Zetland Vets, Clifton","address":"28 St Pauls Road, Clifton, BS8 1LR","longitude":"-2.610492","latitude":"51.45942","websiteUrl":"http://www.zetlandvets.co.uk","phone":"0117 9739205","vacanciesText":"","vacanciesUrl":"","distance":"","animalTypes":[],"isGA":false,"logoUrl":"https://api.clinicsview.ivcevidensia.io/webcontent/clinics/Logo/1137"},{"id":"2047","name":"Zetland Vets, Redland","address":"32-34 Zetland Road, Redland, BS6 7AB","longitude":"-2.595847","latitude":"51.469955","websiteUrl":"http://www.zetlandvets.co.uk","phone":"01179 445111","vacanciesText":"","vacanciesUrl":"","distance":"","animalTypes":[],"isGA":false,"logoUrl":"https://api.clinicsview.ivcevidensia.io/webcontent/clinics/Logo/1219"}],"clinicsMatchCount":391}